var data = {
  "size": 1622,
  "churches": [
    {
      "lat": "59.7180",
      "lng": "5.3461",
      "name": "Moster kyrkje",
      "images": []
    },
    {
      "lat": "60.8414",
      "lng": "9.9585",
      "name": "Nordsinni kirke",
      "images": []
    },
    {
      "lat": "69.1723",
      "lng": "17.7549",
      "name": "Vangsvik kapell",
      "images": []
    },
    {
      "lat": "58.9263",
      "lng": "5.8510",
      "name": "Riska gamle kirke",
      "images": []
    },
    {
      "lat": "66.0622",
      "lng": "12.9378",
      "name": "Leirfjord kirke",
      "images": []
    },
    {
      "lat": "62.6276",
      "lng": "7.0850",
      "name": "Vestnes kyrkje",
      "images": []
    },
    {
      "lat": "67.2335",
      "lng": "14.6254",
      "name": "Saltstraumen kirke",
      "images": []
    },
    {
      "lat": "62.1072",
      "lng": "6.5563",
      "name": "Bjørke kyrkje, Ørsta",
      "images": []
    },
    {
      "lat": "60.4769",
      "lng": "5.2125",
      "name": "Ask kirke, Askøy",
      "images": []
    },
    {
      "lat": "59.7269",
      "lng": "11.8165",
      "name": "Rømskog kirke",
      "images": []
    },
    {
      "lat": "59.1109",
      "lng": "9.6678",
      "name": "Stridsklev kirke",
      "images": []
    },
    {
      "lat": "61.8776",
      "lng": "8.3731",
      "name": "Skjåk kyrkje",
      "images": []
    },
    {
      "lat": "63.7451",
      "lng": "11.2954",
      "name": "Levanger kirke",
      "images": []
    },
    {
      "lat": "58.5592",
      "lng": "7.7734",
      "name": "Hornnes kyrkje",
      "images": []
    },
    {
      "lat": "60.3665",
      "lng": "10.5295",
      "name": "Mariakirken, Gran",
      "images": []
    },
    {
      "lat": "69.3373",
      "lng": "17.0974",
      "name": "Torsken kirke",
      "images": []
    },
    {
      "lat": "63.2953",
      "lng": "10.4767",
      "name": "Klæbu kirke",
      "images": []
    },
    {
      "lat": "60.1449",
      "lng": "11.1753",
      "name": "Jessheim kirke",
      "images": []
    },
    {
      "lat": "68.7812",
      "lng": "16.5315",
      "name": "Kanebogen kirke",
      "images": []
    },
    {
      "lat": "62.2494",
      "lng": "5.7815",
      "name": "Leikanger kyrkje, Herøy",
      "images": []
    },
    {
      "lat": "60.2344",
      "lng": "11.5171",
      "name": "Ingeborgrud kirke",
      "images": []
    },
    {
      "lat": "59.8892",
      "lng": "9.7691",
      "name": "Bingen kapell",
      "images": []
    },
    {
      "lat": "63.0445",
      "lng": "9.7197",
      "name": "Meldal kirke",
      "images": []
    },
    {
      "lat": "61.8921",
      "lng": "5.5325",
      "name": "Davik kyrkje",
      "images": []
    },
    {
      "lat": "58.8712",
      "lng": "9.4144",
      "name": "Kragerø kirke",
      "images": []
    },
    {
      "lat": "63.6329",
      "lng": "8.7066",
      "name": "Dolm kirke, Hitra",
      "images": []
    },
    {
      "lat": "59.1757",
      "lng": "6.0626",
      "name": "Fister kyrkje",
      "images": []
    },
    {
      "lat": "59.2314",
      "lng": "10.1264",
      "name": "Kodal kirke",
      "images": []
    },
    {
      "lat": "69.6488",
      "lng": "18.9568",
      "name": "Tromsø domkirke",
      "images": []
    },
    {
      "lat": "59.2615",
      "lng": "10.4954",
      "name": "Valløy kirke",
      "images": []
    },
    {
      "lat": "58.5978",
      "lng": "5.6621",
      "name": "Varhaug kyrkje",
      "images": []
    },
    {
      "lat": "59.2853",
      "lng": "8.0923",
      "name": "Veum kyrkje",
      "images": []
    },
    {
      "lat": "63.4543",
      "lng": "10.9549",
      "name": "Værnes kirke",
      "images": []
    },
    {
      "lat": "60.2113",
      "lng": "11.3768",
      "name": "Fenstad kirke",
      "images": []
    },
    {
      "lat": "67.1356",
      "lng": "16.0578",
      "name": "Valnesfjord kirke",
      "images": []
    },
    {
      "lat": "61.0723",
      "lng": "10.4299",
      "name": "Vingrom kirke",
      "images": []
    },
    {
      "lat": "60.0603",
      "lng": "10.1959",
      "name": "Bønsnes kirke",
      "images": []
    },
    {
      "lat": "60.5510",
      "lng": "12.0178",
      "name": "Hof kirke, Åsnes",
      "images": []
    },
    {
      "lat": "70.1529",
      "lng": "19.6702",
      "name": "Sengskroken kirke",
      "images": []
    },
    {
      "lat": "60.6986",
      "lng": "5.5853",
      "name": "Vike kyrkje, Lindås",
      "images": []
    },
    {
      "lat": "59.9062",
      "lng": "10.6788",
      "name": "Bygdøy kirke",
      "images": []
    },
    {
      "lat": "59.9273",
      "lng": "11.9902",
      "name": "Vestmarka kirke",
      "images": []
    },
    {
      "lat": "66.2182",
      "lng": "13.3870",
      "name": "Bardal kirke",
      "images": []
    },
    {
      "lat": "61.1206",
      "lng": "9.0591",
      "name": "Volbu kyrkje",
      "images": []
    },
    {
      "lat": "59.9884",
      "lng": "8.7320",
      "name": "Atrå kyrkje",
      "images": []
    },
    {
      "lat": "60.1048",
      "lng": "5.1698",
      "name": "Austevoll kirke",
      "images": []
    },
    {
      "lat": "63.6771",
      "lng": "8.6183",
      "name": "Hallaren kirke, Frøya",
      "images": []
    },
    {
      "lat": "64.9901",
      "lng": "11.7690",
      "name": "Gravvik kirke",
      "images": []
    },
    {
      "lat": "59.5245",
      "lng": "11.6371",
      "name": "Klund kirke",
      "images": []
    },
    {
      "lat": "60.0736",
      "lng": "5.7564",
      "name": "Sundvor kyrkje",
      "images": []
    },
    {
      "lat": "60.2257",
      "lng": "5.3990",
      "name": "Lysekloster kapell",
      "images": []
    },
    {
      "lat": "59.5950",
      "lng": "11.0684",
      "name": "Spydeberg kirke",
      "images": []
    },
    {
      "lat": "60.8003",
      "lng": "5.3027",
      "name": "Sandnes kyrkje, Masfjorden",
      "images": []
    },
    {
      "lat": "59.4218",
      "lng": "9.2813",
      "name": "Sauherad kirke",
      "images": []
    },
    {
      "lat": "65.8271",
      "lng": "12.4237",
      "name": "Tjøtta kirke",
      "images": []
    },
    {
      "lat": "58.1481",
      "lng": "7.9723",
      "name": "Grim kirke",
      "images": []
    },
    {
      "lat": "58.6326",
      "lng": "8.2797",
      "name": "Mykland kirke",
      "images": []
    },
    {
      "lat": "59.3674",
      "lng": "10.1211",
      "name": "Høyjord stavkirke",
      "images": []
    },
    {
      "lat": "64.0200",
      "lng": "11.6314",
      "name": "Skei kirke",
      "images": []
    },
    {
      "lat": "59.1185",
      "lng": "9.6992",
      "name": "Eidanger kirke",
      "images": []
    },
    {
      "lat": "62.1185",
      "lng": "5.3125",
      "name": "Leikanger kyrkje, Selje",
      "images": []
    },
    {
      "lat": "59.9556",
      "lng": "10.9260",
      "name": "Stovner kirke",
      "images": []
    },
    {
      "lat": "68.6834",
      "lng": "16.5316",
      "name": "Sandtorg kirke",
      "images": []
    },
    {
      "lat": "59.8830",
      "lng": "10.8404",
      "name": "Bøler kirke",
      "images": []
    },
    {
      "lat": "61.7594",
      "lng": "11.1810",
      "name": "Ytre Rendal kirke",
      "images": []
    },
    {
      "lat": "60.6509",
      "lng": "4.8255",
      "name": "Hjelme gamle kyrkje",
      "images": []
    },
    {
      "lat": "60.1790",
      "lng": "5.4081",
      "name": "Nore Neset kyrkje",
      "images": []
    },
    {
      "lat": "68.2335",
      "lng": "14.5633",
      "name": "Svolvær kirke",
      "images": []
    },
    {
      "lat": "66.3871",
      "lng": "13.1199",
      "name": "Aldersund kirke",
      "images": []
    },
    {
      "lat": "62.6020",
      "lng": "6.4415",
      "name": "Brattvåg kyrkje",
      "images": []
    },
    {
      "lat": "58.0931",
      "lng": "6.9018",
      "name": "Spind kirke",
      "images": []
    },
    {
      "lat": "62.8227",
      "lng": "7.0297",
      "name": "Vågøy kyrkje",
      "images": []
    },
    {
      "lat": "62.0988",
      "lng": "7.2071",
      "name": "Geiranger kyrkje",
      "images": []
    },
    {
      "lat": "61.8342",
      "lng": "6.8056",
      "name": "Olden gamle kyrkje",
      "images": []
    },
    {
      "lat": "60.1057",
      "lng": "10.8771",
      "name": "Hakadal kirke",
      "images": []
    },
    {
      "lat": "60.6473",
      "lng": "6.1147",
      "name": "Evanger kyrkje",
      "images": []
    },
    {
      "lat": "67.2951",
      "lng": "14.4162",
      "name": "Rønvik kirke",
      "images": []
    },
    {
      "lat": "59.2461",
      "lng": "9.1608",
      "name": "Landsmarka kapell",
      "images": []
    },
    {
      "lat": "59.9542",
      "lng": "10.7792",
      "name": "Grefsen kirke",
      "images": []
    },
    {
      "lat": "61.0282",
      "lng": "10.5499",
      "name": "Brøttum kirke",
      "images": []
    },
    {
      "lat": "68.8022",
      "lng": "16.5355",
      "name": "Harstad kirke",
      "images": []
    },
    {
      "lat": "60.8803",
      "lng": "10.4626",
      "name": "Seegård kirke",
      "images": []
    },
    {
      "lat": "59.1232",
      "lng": "10.0601",
      "name": "Hedrum kirke",
      "images": []
    },
    {
      "lat": "59.7918",
      "lng": "10.8875",
      "name": "Siggerud kirke",
      "images": []
    },
    {
      "lat": "63.1138",
      "lng": "10.0232",
      "name": "Hølonda kirke",
      "images": []
    },
    {
      "lat": "59.9239",
      "lng": "10.7396",
      "name": "Markus kirke",
      "images": []
    },
    {
      "lat": "58.8988",
      "lng": "9.3706",
      "name": "Helle kirke",
      "images": []
    },
    {
      "lat": "60.2694",
      "lng": "6.0132",
      "name": "Strandebarm kyrkje",
      "images": []
    },
    {
      "lat": "61.2662",
      "lng": "10.4223",
      "name": "Øyer kirke",
      "images": []
    },
    {
      "lat": "63.6314",
      "lng": "9.8401",
      "name": "Hasselvika kirke",
      "images": []
    },
    {
      "lat": "68.6112",
      "lng": "16.4923",
      "name": "Gausvik kirke",
      "images": []
    },
    {
      "lat": "58.3863",
      "lng": "7.7403",
      "name": "Hægeland kirke",
      "images": []
    },
    {
      "lat": "64.5348",
      "lng": "12.4018",
      "name": "Gløshaug kirke",
      "images": []
    },
    {
      "lat": "59.6872",
      "lng": "10.2222",
      "name": "Skoger kirke",
      "images": []
    },
    {
      "lat": "60.3787",
      "lng": "5.2189",
      "name": "Olsvik kirke",
      "images": []
    },
    {
      "lat": "63.1095",
      "lng": "11.3095",
      "name": "Flora kapell, Selbu",
      "images": []
    },
    {
      "lat": "62.3444",
      "lng": "5.8460",
      "name": "Ulstein kyrkje",
      "images": []
    },
    {
      "lat": "59.5449",
      "lng": "10.3879",
      "name": "Berger kirke",
      "images": []
    },
    {
      "lat": "62.4712",
      "lng": "6.1457",
      "name": "Ålesund kirke",
      "images": []
    },
    {
      "lat": "64.8767",
      "lng": "10.9627",
      "name": "Garstad kirke",
      "images": []
    },
    {
      "lat": "67.9005",
      "lng": "13.0470",
      "name": "Moskenes kirke",
      "images": []
    },
    {
      "lat": "59.9257",
      "lng": "10.6547",
      "name": "Ullern kirke, Oslo",
      "images": []
    },
    {
      "lat": "68.0969",
      "lng": "16.3744",
      "name": "Kjøpsvik kirke",
      "images": []
    },
    {
      "lat": "60.3234",
      "lng": "11.2443",
      "name": "Eidsvoll kirke",
      "images": []
    },
    {
      "lat": "61.2260",
      "lng": "10.2677",
      "name": "Follebu kirke",
      "images": []
    },
    {
      "lat": "64.8665",
      "lng": "11.5965",
      "name": "Kolvereid kirke",
      "images": []
    },
    {
      "lat": "59.6951",
      "lng": "5.4760",
      "name": "Valen kyrkje, Kvinnherad",
      "images": []
    },
    {
      "lat": "62.1094",
      "lng": "10.6302",
      "name": "Alvdal kirke",
      "images": []
    },
    {
      "lat": "59.3797",
      "lng": "10.7225",
      "name": "Rygge kirke",
      "images": []
    },
    {
      "lat": "59.3512",
      "lng": "7.3428",
      "name": "Bykle kyrkje",
      "images": []
    },
    {
      "lat": "60.7761",
      "lng": "10.2461",
      "name": "Fluberg kirke",
      "images": []
    },
    {
      "lat": "60.0254",
      "lng": "9.8682",
      "name": "Snarum kirke",
      "images": []
    },
    {
      "lat": "61.4084",
      "lng": "7.2960",
      "name": "Gaupne gamle kyrkje",
      "images": []
    },
    {
      "lat": "58.7367",
      "lng": "5.6457",
      "name": "Bryne kyrkje",
      "images": []
    },
    {
      "lat": "59.8523",
      "lng": "8.0654",
      "name": "Møsstrond kyrkje",
      "images": []
    },
    {
      "lat": "61.1073",
      "lng": "6.1308",
      "name": "Ortnevik kyrkje",
      "images": []
    },
    {
      "lat": "59.2563",
      "lng": "10.8507",
      "name": "Onsøy kirke",
      "images": []
    },
    {
      "lat": "59.1294",
      "lng": "11.4446",
      "name": "Tistedal kirke",
      "images": []
    },
    {
      "lat": "59.9111",
      "lng": "10.7677",
      "name": "Grønland kirke",
      "images": []
    },
    {
      "lat": "60.8268",
      "lng": "11.3153",
      "name": "Løten kirke",
      "images": []
    },
    {
      "lat": "62.6317",
      "lng": "6.2733",
      "name": "Haram kyrkje",
      "images": []
    },
    {
      "lat": "59.9578",
      "lng": "10.8847",
      "name": "Grorud kirke",
      "images": []
    },
    {
      "lat": "61.7578",
      "lng": "11.9606",
      "name": "Engerdal kirke",
      "images": []
    },
    {
      "lat": "61.1853",
      "lng": "6.8195",
      "name": "Leikanger kyrkje, Leikanger",
      "images": []
    },
    {
      "lat": "58.9913",
      "lng": "9.9152",
      "name": "Berg trekirke, Larvik",
      "images": []
    },
    {
      "lat": "68.3220",
      "lng": "14.2316",
      "name": "Gimsøy kirke, Vågan",
      "images": []
    },
    {
      "lat": "59.6750",
      "lng": "5.4669",
      "name": "Valestrand kyrkje",
      "images": []
    },
    {
      "lat": "61.5351",
      "lng": "5.1818",
      "name": "Stavang kyrkje",
      "images": []
    },
    {
      "lat": "59.0373",
      "lng": "10.0702",
      "name": "Østre Halsen kirke",
      "images": []
    },
    {
      "lat": "60.6642",
      "lng": "8.7083",
      "name": "Torpo kyrkje",
      "images": []
    },
    {
      "lat": "59.4243",
      "lng": "8.1825",
      "name": "Lårdal kyrkje",
      "images": []
    },
    {
      "lat": "63.4299",
      "lng": "10.3764",
      "name": "Ilen kirke",
      "images": []
    },
    {
      "lat": "59.9322",
      "lng": "6.5935",
      "name": "Skare kirke",
      "images": []
    },
    {
      "lat": "63.0526",
      "lng": "8.0243",
      "name": "Straumsnes kyrkje",
      "images": []
    },
    {
      "lat": "69.4120",
      "lng": "19.6501",
      "name": "Lakselvbukt kirke",
      "images": []
    },
    {
      "lat": "63.4659",
      "lng": "8.0134",
      "name": "Hopen kirke",
      "images": []
    },
    {
      "lat": "59.4337",
      "lng": "8.4813",
      "name": "Brunkeberg kyrkje",
      "images": []
    },
    {
      "lat": "58.2629",
      "lng": "6.8199",
      "name": "Feda kirke",
      "images": []
    },
    {
      "lat": "59.9657",
      "lng": "10.6723",
      "name": "Holmenkollen kapell",
      "images": []
    },
    {
      "lat": "60.3530",
      "lng": "5.2963",
      "name": "Fyllingsdalen kirke",
      "images": []
    },
    {
      "lat": "59.0468",
      "lng": "10.0352",
      "name": "Larvik kirke",
      "images": []
    },
    {
      "lat": "58.1673",
      "lng": "7.5529",
      "name": "Øyslebø kirke",
      "images": []
    },
    {
      "lat": "59.9143",
      "lng": "11.1658",
      "name": "Fet kirke, Fetsund",
      "images": []
    },
    {
      "lat": "59.9238",
      "lng": "10.5657",
      "name": "Haslum kirke",
      "images": []
    },
    {
      "lat": "59.6774",
      "lng": "10.2085",
      "name": "Skoger gamle kirke",
      "images": []
    },
    {
      "lat": "60.3075",
      "lng": "10.5573",
      "name": "Lunner kirke, Lunner",
      "images": []
    },
    {
      "lat": "60.7967",
      "lng": "11.0683",
      "name": "Hamar domkirke",
      "images": []
    },
    {
      "lat": "60.1272",
      "lng": "5.0792",
      "name": "Store-Kalsøy kapell",
      "images": []
    },
    {
      "lat": "58.2863",
      "lng": "7.3579",
      "name": "Konsmo kirke",
      "images": []
    },
    {
      "lat": "70.9446",
      "lng": "27.3598",
      "name": "Kjøllefjord kirke",
      "images": []
    },
    {
      "lat": "66.3453",
      "lng": "14.1280",
      "name": "Ytteren kirke",
      "images": []
    },
    {
      "lat": "58.8529",
      "lng": "5.7336",
      "name": "Sandnes kirke, Sandnes",
      "images": []
    },
    {
      "lat": "59.2570",
      "lng": "5.1954",
      "name": "Åkra kirke, Karmøy",
      "images": []
    },
    {
      "lat": "60.7989",
      "lng": "6.1554",
      "name": "Nesheim kyrkje",
      "images": []
    },
    {
      "lat": "60.1693",
      "lng": "9.0123",
      "name": "Nore kirke, Norefjord",
      "images": []
    },
    {
      "lat": "68.6748",
      "lng": "17.1243",
      "name": "Astafjord kirke",
      "images": []
    },
    {
      "lat": "63.2486",
      "lng": "10.9519",
      "name": "Selbustrand kirke",
      "images": []
    },
    {
      "lat": "67.1356",
      "lng": "16.0578",
      "name": "Sulitjelma kirke",
      "images": []
    },
    {
      "lat": "58.4499",
      "lng": "8.8100",
      "name": "Færvik kirke",
      "images": []
    },
    {
      "lat": "67.4812",
      "lng": "15.4675",
      "name": "Røsvik kirke",
      "images": []
    },
    {
      "lat": "62.6025",
      "lng": "8.9391",
      "name": "Romfo kyrkje",
      "images": []
    },
    {
      "lat": "59.7195",
      "lng": "10.8308",
      "name": "Ski nye kirke",
      "images": []
    },
    {
      "lat": "60.8156",
      "lng": "5.8023",
      "name": "Mo kyrkje, Modalen",
      "images": []
    },
    {
      "lat": "60.8041",
      "lng": "11.0463",
      "name": "Storhamar kirke",
      "images": []
    },
    {
      "lat": "58.1541",
      "lng": "7.8250",
      "name": "Greipstad kirke",
      "images": []
    },
    {
      "lat": "60.4748",
      "lng": "5.3258",
      "name": "Åsane kirke",
      "images": []
    },
    {
      "lat": "62.3246",
      "lng": "6.1413",
      "name": "Vartdal kyrkje",
      "images": []
    },
    {
      "lat": "59.9168",
      "lng": "10.7452",
      "name": "Trefoldighetskirken, Oslo",
      "images": []
    },
    {
      "lat": "60.2462",
      "lng": "9.3573",
      "name": "Eggedal kirke",
      "images": []
    },
    {
      "lat": "58.9932",
      "lng": "5.7269",
      "name": "Hundvåg kirke, Stavanger",
      "images": []
    },
    {
      "lat": "63.0978",
      "lng": "9.3219",
      "name": "Øvre Rindal kapell",
      "images": []
    },
    {
      "lat": "59.3800",
      "lng": "5.2315",
      "name": "Torvastad kirke",
      "images": []
    },
    {
      "lat": "60.3529",
      "lng": "5.3570",
      "name": "Slettebakken kirke",
      "images": []
    },
    {
      "lat": "64.5592",
      "lng": "12.4865",
      "name": "Harran kirke",
      "images": []
    },
    {
      "lat": "66.9096",
      "lng": "14.7492",
      "name": "Høyforsmoen kapell",
      "images": []
    },
    {
      "lat": "60.8845",
      "lng": "10.9528",
      "name": "Brumunddal kirke",
      "images": []
    },
    {
      "lat": "58.0759",
      "lng": "8.0012",
      "name": "Flekkerøy kirke",
      "images": []
    },
    {
      "lat": "58.0948",
      "lng": "6.7984",
      "name": "Vestbygda kapell, Farsund",
      "images": []
    },
    {
      "lat": "59.1603",
      "lng": "9.6579",
      "name": "Borgestad kirke",
      "images": []
    },
    {
      "lat": "63.1091",
      "lng": "7.7478",
      "name": "Nordlandet kirke",
      "images": []
    },
    {
      "lat": "59.7872",
      "lng": "5.5107",
      "name": "Stord kyrkje",
      "images": []
    },
    {
      "lat": "61.6679",
      "lng": "11.7861",
      "name": "Søre Elvdal kirke",
      "images": []
    },
    {
      "lat": "63.8019",
      "lng": "10.5813",
      "name": "Fines kirke",
      "images": []
    },
    {
      "lat": "66.9095",
      "lng": "13.6337",
      "name": "Fore kirke",
      "images": []
    },
    {
      "lat": "60.3406",
      "lng": "5.2697",
      "name": "Sælen kirke",
      "images": []
    },
    {
      "lat": "66.8235",
      "lng": "13.4066",
      "name": "Meløy kirke",
      "images": []
    },
    {
      "lat": "59.2278",
      "lng": "11.0435",
      "name": "Borge kirke, Fredrikstad",
      "images": []
    },
    {
      "lat": "60.1590",
      "lng": "11.2627",
      "name": "Furuset kirke, Ullensaker",
      "images": []
    },
    {
      "lat": "60.1710",
      "lng": "9.6370",
      "name": "Olberg kirke, Krødsherad",
      "images": []
    },
    {
      "lat": "61.1124",
      "lng": "6.3891",
      "name": "Sæle kyrkje",
      "images": []
    },
    {
      "lat": "65.4050",
      "lng": "12.5220",
      "name": "Velfjord kirke, Naustvik",
      "images": []
    },
    {
      "lat": "59.7553",
      "lng": "8.7884",
      "name": "Tuddal kyrkje",
      "images": []
    },
    {
      "lat": "59.2076",
      "lng": "5.1845",
      "name": "Ferkingstad kyrkje",
      "images": []
    },
    {
      "lat": "58.9650",
      "lng": "5.6083",
      "name": "Sunde kirke, Stavanger",
      "images": []
    },
    {
      "lat": "59.6366",
      "lng": "11.3131",
      "name": "Trøgstad kirke",
      "images": []
    },
    {
      "lat": "69.9646",
      "lng": "23.2518",
      "name": "Alta kirke",
      "images": []
    },
    {
      "lat": "60.3918",
      "lng": "5.3327",
      "name": "St. Jørgen hospitalkirke",
      "images": []
    },
    {
      "lat": "60.3873",
      "lng": "5.2733",
      "name": "Nygård kirke",
      "images": []
    },
    {
      "lat": "59.9428",
      "lng": "10.8893",
      "name": "Furuset kirke, Oslo",
      "images": []
    },
    {
      "lat": "62.8188",
      "lng": "6.5842",
      "name": "Sandøy kyrkje",
      "images": []
    },
    {
      "lat": "61.5089",
      "lng": "5.7167",
      "name": "Naustdal kyrkje",
      "images": []
    },
    {
      "lat": "60.8776",
      "lng": "11.5663",
      "name": "Elverum kirke",
      "images": []
    },
    {
      "lat": "59.1513",
      "lng": "5.2812",
      "name": "Falnes kirke",
      "images": []
    },
    {
      "lat": "63.0883",
      "lng": "7.6598",
      "name": "Bremsnes kirke",
      "images": []
    },
    {
      "lat": "70.0417",
      "lng": "22.9490",
      "name": "Talvik kirke",
      "images": []
    },
    {
      "lat": "62.9560",
      "lng": "7.0971",
      "name": "Hustad kyrkje, Fræna",
      "images": []
    },
    {
      "lat": "60.5553",
      "lng": "6.7310",
      "name": "Granvin kyrkje",
      "images": []
    },
    {
      "lat": "63.3253",
      "lng": "10.0727",
      "name": "Børsa kirke",
      "images": []
    },
    {
      "lat": "60.9367",
      "lng": "10.1292",
      "name": "Kinn kirke, Nordre land",
      "images": []
    },
    {
      "lat": "66.3586",
      "lng": "14.3235",
      "name": "Røssvoll kirke",
      "images": []
    },
    {
      "lat": "58.1775",
      "lng": "8.0922",
      "name": "Hånes kirke",
      "images": []
    },
    {
      "lat": "69.7696",
      "lng": "21.0333",
      "name": "Nordreisa kirke",
      "images": []
    },
    {
      "lat": "68.0000",
      "lng": "15.7682",
      "name": "Sagfjord kirke",
      "images": []
    },
    {
      "lat": "61.3103",
      "lng": "7.8011",
      "name": "Farnes kyrkje, Øvre Årdal",
      "images": []
    },
    {
      "lat": "58.3662",
      "lng": "8.5948",
      "name": "Fjære kirke",
      "images": []
    },
    {
      "lat": "60.6151",
      "lng": "8.3002",
      "name": "Hol gamle kyrkje",
      "images": []
    },
    {
      "lat": "61.4148",
      "lng": "12.1377",
      "name": "Nordre Trysil kirke",
      "images": []
    },
    {
      "lat": "60.4054",
      "lng": "5.3255",
      "name": "Sandvikskirken",
      "images": []
    },
    {
      "lat": "63.1371",
      "lng": "10.2545",
      "name": "Horg kirke",
      "images": []
    },
    {
      "lat": "61.9181",
      "lng": "5.6250",
      "name": "Kjølsdalen kyrkje",
      "images": []
    },
    {
      "lat": "60.5982",
      "lng": "8.3480",
      "name": "Hol kyrkje, Hagafoss",
      "images": []
    },
    {
      "lat": "59.3720",
      "lng": "10.3687",
      "name": "Undrumsdal kirke",
      "images": []
    },
    {
      "lat": "60.1172",
      "lng": "6.5621",
      "name": "Tyssedal kirke",
      "images": []
    },
    {
      "lat": "59.3798",
      "lng": "5.3086",
      "name": "Norheim kirke",
      "images": []
    },
    {
      "lat": "62.0750",
      "lng": "9.1245",
      "name": "Dombås kyrkje",
      "images": []
    },
    {
      "lat": "60.6168",
      "lng": "5.2769",
      "name": "Seim kyrkje",
      "images": []
    },
    {
      "lat": "60.1456",
      "lng": "11.0513",
      "name": "Holter kirke, Nannestad",
      "images": []
    },
    {
      "lat": "60.5410",
      "lng": "5.1914",
      "name": "Meland kyrkje",
      "images": []
    },
    {
      "lat": "62.7061",
      "lng": "6.3749",
      "name": "Fjørtoft kyrkje",
      "images": []
    },
    {
      "lat": "62.4678",
      "lng": "6.3478",
      "name": "Spjelkavik kyrkje",
      "images": []
    },
    {
      "lat": "58.9177",
      "lng": "7.7382",
      "name": "Sandnes kirke, Åraksbø i Bygland",
      "images": []
    },
    {
      "lat": "59.4810",
      "lng": "11.6597",
      "name": "Ørje kirke",
      "images": []
    },
    {
      "lat": "63.2873",
      "lng": "9.0793",
      "name": "Hemne kirke, Hemne",
      "images": []
    },
    {
      "lat": "61.7375",
      "lng": "10.8171",
      "name": "Atneosen kirke",
      "images": []
    },
    {
      "lat": "61.1603",
      "lng": "10.3717",
      "name": "Fåberg kirke",
      "images": []
    },
    {
      "lat": "65.3109",
      "lng": "12.1630",
      "name": "Sømna kirke, Vik",
      "images": []
    },
    {
      "lat": "64.5167",
      "lng": "11.5418",
      "name": "Vemundvik kirke",
      "images": []
    },
    {
      "lat": "60.8636",
      "lng": "5.2101",
      "name": "Frøyset kyrkje, Masfjorden",
      "images": []
    },
    {
      "lat": "59.9627",
      "lng": "10.9247",
      "name": "Fossum kirke",
      "images": []
    },
    {
      "lat": "70.8611",
      "lng": "29.0895",
      "name": "Berlevåg kirke",
      "images": []
    },
    {
      "lat": "67.1022",
      "lng": "15.4069",
      "name": "Saltdal kirke",
      "images": []
    },
    {
      "lat": "59.5615",
      "lng": "7.3542",
      "name": "Fjellgardane kyrkje, Hovden",
      "images": []
    },
    {
      "lat": "70.1119",
      "lng": "29.3371",
      "name": "Vestre Jakobselv kirke",
      "images": []
    },
    {
      "lat": "68.5410",
      "lng": "14.9906",
      "name": "Hadsel kirke",
      "images": []
    },
    {
      "lat": "59.7465",
      "lng": "10.3867",
      "name": "Røyken kirke",
      "images": []
    },
    {
      "lat": "62.5527",
      "lng": "7.6729",
      "name": "Grytten kirke",
      "images": []
    },
    {
      "lat": "59.4231",
      "lng": "5.4461",
      "name": "Aksdal kyrkje",
      "images": []
    },
    {
      "lat": "64.2485",
      "lng": "13.7486",
      "name": "Sørli kirke",
      "images": []
    },
    {
      "lat": "58.8272",
      "lng": "6.1901",
      "name": "Dirdal kyrkje",
      "images": []
    },
    {
      "lat": "58.8902",
      "lng": "5.6191",
      "name": "Sola kirke",
      "images": []
    },
    {
      "lat": "58.2504",
      "lng": "8.3818",
      "name": "Lillesand kirke",
      "images": []
    },
    {
      "lat": "60.5719",
      "lng": "10.6540",
      "name": "Eina kirke",
      "images": []
    },
    {
      "lat": "60.4492",
      "lng": "12.0529",
      "name": "Grue kirke",
      "images": []
    },
    {
      "lat": "59.7623",
      "lng": "11.1469",
      "name": "Enebakk kirke",
      "images": []
    },
    {
      "lat": "60.6100",
      "lng": "11.9763",
      "name": "Åsnes kirke",
      "images": []
    },
    {
      "lat": "62.2331",
      "lng": "8.3472",
      "name": "Lesjaskog kirke",
      "images": []
    },
    {
      "lat": "59.2447",
      "lng": "11.6822",
      "name": "Aremark kirke",
      "images": []
    },
    {
      "lat": "58.9354",
      "lng": "5.6033",
      "name": "Tananger kirke",
      "images": []
    },
    {
      "lat": "63.1877",
      "lng": "9.7658",
      "name": "Moe kirke",
      "images": []
    },
    {
      "lat": "63.7239",
      "lng": "11.2252",
      "name": "Alstadhaug kirke, Skogn",
      "images": []
    },
    {
      "lat": "66.2258",
      "lng": "13.6118",
      "name": "Hemnes kirke, Hemnesberget",
      "images": []
    },
    {
      "lat": "59.6046",
      "lng": "5.2107",
      "name": "Bømlo kyrkje",
      "images": []
    },
    {
      "lat": "58.4919",
      "lng": "8.8440",
      "name": "Stokken kirke",
      "images": []
    },
    {
      "lat": "69.0832",
      "lng": "17.1742",
      "name": "Stonglandet kirke",
      "images": []
    },
    {
      "lat": "69.3927",
      "lng": "18.3987",
      "name": "Rossfjord kirke",
      "images": []
    },
    {
      "lat": "62.6662",
      "lng": "8.1134",
      "name": "Sira kyrkje, Eresfjord",
      "images": []
    },
    {
      "lat": "63.8014",
      "lng": "12.3494",
      "name": "Vera kirke",
      "images": []
    },
    {
      "lat": "58.6252",
      "lng": "6.9175",
      "name": "Netlandsnes kapell",
      "images": []
    },
    {
      "lat": "60.8309",
      "lng": "9.4927",
      "name": "Reinli kapell",
      "images": []
    },
    {
      "lat": "61.7719",
      "lng": "6.1567",
      "name": "Gimmestad kyrkje",
      "images": []
    },
    {
      "lat": "59.2241",
      "lng": "9.6077",
      "name": "Gjerpen kirke",
      "images": []
    },
    {
      "lat": "58.4709",
      "lng": "6.0225",
      "name": "Bakkebø kirke",
      "images": []
    },
    {
      "lat": "68.9592",
      "lng": "16.2659",
      "name": "Grøtavær kirke",
      "images": []
    },
    {
      "lat": "62.4396",
      "lng": "6.2049",
      "name": "Langevåg kyrkje",
      "images": []
    },
    {
      "lat": "58.2934",
      "lng": "6.4421",
      "name": "Åna-Sira kirke",
      "images": []
    },
    {
      "lat": "69.0387",
      "lng": "17.4943",
      "name": "Dyrøy kirke",
      "images": []
    },
    {
      "lat": "59.5993",
      "lng": "10.6587",
      "name": "Hvitsten kirke",
      "images": []
    },
    {
      "lat": "67.2343",
      "lng": "15.0211",
      "name": "Skjerstad kirke",
      "images": []
    },
    {
      "lat": "63.3503",
      "lng": "10.3516",
      "name": "Heimdal kirke",
      "images": []
    },
    {
      "lat": "59.4198",
      "lng": "11.6640",
      "name": "Øymark kirke",
      "images": []
    },
    {
      "lat": "58.5250",
      "lng": "6.9905",
      "name": "Fjotland kyrkje",
      "images": []
    },
    {
      "lat": "64.2181",
      "lng": "11.2101",
      "name": "Namdalseid kirke",
      "images": []
    },
    {
      "lat": "64.2441",
      "lng": "12.3706",
      "name": "Snåsa kirke",
      "images": []
    },
    {
      "lat": "58.6801",
      "lng": "9.0630",
      "name": "Laget kapell",
      "images": []
    },
    {
      "lat": "70.3172",
      "lng": "25.5422",
      "name": "Børselv kapell",
      "images": []
    },
    {
      "lat": "59.9246",
      "lng": "10.9848",
      "name": "Lørenskog kirke",
      "images": []
    },
    {
      "lat": "64.8297",
      "lng": "11.2215",
      "name": "Nærøy gamle kirke",
      "images": []
    },
    {
      "lat": "59.5061",
      "lng": "9.9129",
      "name": "Komnes kirke",
      "images": []
    },
    {
      "lat": "60.9316",
      "lng": "10.0432",
      "name": "Lunde kirke, Nordre Land",
      "images": []
    },
    {
      "lat": "59.0327",
      "lng": "11.0256",
      "name": "Hvaler kirke",
      "images": []
    },
    {
      "lat": "58.5260",
      "lng": "8.6518",
      "name": "Froland kirke",
      "images": []
    },
    {
      "lat": "59.6143",
      "lng": "10.4597",
      "name": "Hurum kirke",
      "images": []
    },
    {
      "lat": "59.6895",
      "lng": "9.0358",
      "name": "Gransherad kyrkje",
      "images": []
    },
    {
      "lat": "60.2555",
      "lng": "10.6622",
      "name": "Grua kirke, Lunner",
      "images": []
    },
    {
      "lat": "66.0192",
      "lng": "12.6182",
      "name": "Sandnessjøen kirke",
      "images": []
    },
    {
      "lat": "58.9012",
      "lng": "6.0981",
      "name": "Forsand kyrkje",
      "images": []
    },
    {
      "lat": "61.3109",
      "lng": "7.1856",
      "name": "Hafslo kyrkje",
      "images": []
    },
    {
      "lat": "60.5683",
      "lng": "4.9506",
      "name": "Herdla kyrkje",
      "images": []
    },
    {
      "lat": "63.2856",
      "lng": "8.1315",
      "name": "Edøy gamle kirke",
      "images": []
    },
    {
      "lat": "59.3433",
      "lng": "11.1130",
      "name": "Holleby kirke",
      "images": []
    },
    {
      "lat": "62.3032",
      "lng": "11.7199",
      "name": "Tufsingdalen kirke",
      "images": []
    },
    {
      "lat": "60.3939",
      "lng": "5.3309",
      "name": "Bergen domkirke",
      "images": []
    },
    {
      "lat": "59.3089",
      "lng": "10.1770",
      "name": "Andebu kirke",
      "images": []
    },
    {
      "lat": "63.9854",
      "lng": "11.1137",
      "name": "Follafoss kirke",
      "images": []
    },
    {
      "lat": "60.2775",
      "lng": "11.0886",
      "name": "Stensgård kirke",
      "images": []
    },
    {
      "lat": "62.1878",
      "lng": "10.9882",
      "name": "Brydalen kirke",
      "images": []
    },
    {
      "lat": "59.6995",
      "lng": "10.7233",
      "name": "Frogn kirke",
      "images": []
    },
    {
      "lat": "67.9336",
      "lng": "13.0883",
      "name": "Reine kirke",
      "images": []
    },
    {
      "lat": "59.5920",
      "lng": "10.0452",
      "name": "Eidsfoss kirke",
      "images": []
    },
    {
      "lat": "59.6149",
      "lng": "9.2642",
      "name": "Lisleherad kirke",
      "images": []
    },
    {
      "lat": "63.7738",
      "lng": "11.7504",
      "name": "Vuku kirke",
      "images": []
    },
    {
      "lat": "60.1378",
      "lng": "10.1807",
      "name": "Ask kapell, Ringerike",
      "images": []
    },
    {
      "lat": "59.7051",
      "lng": "10.5124",
      "name": "Åros kirke",
      "images": []
    },
    {
      "lat": "59.4788",
      "lng": "7.8463",
      "name": "Mo kyrkje, Tokke",
      "images": []
    },
    {
      "lat": "59.1811",
      "lng": "10.9283",
      "name": "Kråkerøy kirke",
      "images": []
    },
    {
      "lat": "68.4063",
      "lng": "15.9806",
      "name": "Lødingen kirke",
      "images": []
    },
    {
      "lat": "59.9313",
      "lng": "5.8581",
      "name": "Uskedalen kyrkje",
      "images": []
    },
    {
      "lat": "59.2824",
      "lng": "11.1111",
      "name": "Sarpsborg kirke",
      "images": []
    },
    {
      "lat": "58.1562",
      "lng": "6.7955",
      "name": "Herad kirke, Farsund",
      "images": []
    },
    {
      "lat": "64.6571",
      "lng": "11.2619",
      "name": "Dun kirke",
      "images": []
    },
    {
      "lat": "60.7574",
      "lng": "11.1447",
      "name": "Ottestad kirke",
      "images": []
    },
    {
      "lat": "59.8639",
      "lng": "11.2267",
      "name": "Dalen kirke, Gansdalen",
      "images": []
    },
    {
      "lat": "60.4582",
      "lng": "5.4394",
      "name": "Ytre Arna kirke",
      "images": []
    },
    {
      "lat": "60.8978",
      "lng": "10.3388",
      "name": "Nykirke, Snertingdal",
      "images": []
    },
    {
      "lat": "69.0053",
      "lng": "18.8934",
      "name": "Kirkesnesmoen kapell, Bakkehaug",
      "images": []
    },
    {
      "lat": "59.5907",
      "lng": "11.1549",
      "name": "Askim Kirke",
      "images": []
    },
    {
      "lat": "62.9167",
      "lng": "7.4446",
      "name": "Eide kirke, Nordmøre",
      "images": []
    },
    {
      "lat": "59.6024",
      "lng": "10.7319",
      "name": "Vestby kirke",
      "images": []
    },
    {
      "lat": "70.0022",
      "lng": "19.8948",
      "name": "Karlsøy kirke",
      "images": []
    },
    {
      "lat": "63.4298",
      "lng": "10.5357",
      "name": "Ranheim kirke",
      "images": []
    },
    {
      "lat": "63.3926",
      "lng": "10.3696",
      "name": "Byåsen kirke",
      "images": []
    },
    {
      "lat": "59.0496",
      "lng": "10.0102",
      "name": "Langestrand kirke",
      "images": []
    },
    {
      "lat": "68.8219",
      "lng": "16.5630",
      "name": "Trondenes kirke",
      "images": []
    },
    {
      "lat": "59.3496",
      "lng": "5.8001",
      "name": "Nedstrand kyrkje",
      "images": []
    },
    {
      "lat": "63.3651",
      "lng": "9.9255",
      "name": "Geitastrand kirke",
      "images": []
    },
    {
      "lat": "61.2258",
      "lng": "5.1710",
      "name": "Øn kyrkje",
      "images": []
    },
    {
      "lat": "69.9312",
      "lng": "21.7264",
      "name": "Skorpa kirke, Kvænangen",
      "images": []
    },
    {
      "lat": "63.3321",
      "lng": "10.8120",
      "name": "Mostadmarka kapell",
      "images": []
    },
    {
      "lat": "59.9586",
      "lng": "11.0483",
      "name": "Lillestrøm kirke",
      "images": []
    },
    {
      "lat": "60.1741",
      "lng": "10.3201",
      "name": "Haug kirke, Ringerike",
      "images": []
    },
    {
      "lat": "70.0503",
      "lng": "20.6293",
      "name": "Arnøy kirke",
      "images": []
    },
    {
      "lat": "60.3666",
      "lng": "5.2273",
      "name": "Loddefjord kirke",
      "images": []
    },
    {
      "lat": "58.8729",
      "lng": "5.7302",
      "name": "Lura kirke",
      "images": []
    },
    {
      "lat": "66.4185",
      "lng": "12.8494",
      "name": "Lurøy kirke",
      "images": []
    },
    {
      "lat": "59.9386",
      "lng": "10.7734",
      "name": "Torshov kirke",
      "images": []
    },
    {
      "lat": "62.4790",
      "lng": "6.8121",
      "name": "Ørskog kyrkje",
      "images": []
    },
    {
      "lat": "60.0295",
      "lng": "8.8264",
      "name": "Austbygde kyrkje",
      "images": []
    },
    {
      "lat": "58.9110",
      "lng": "5.6762",
      "name": "Sørnes kirke",
      "images": []
    },
    {
      "lat": "60.8314",
      "lng": "9.4930",
      "name": "Reinli stavkyrkje",
      "images": []
    },
    {
      "lat": "61.2266",
      "lng": "7.0956",
      "name": "Stedje kyrkje",
      "images": []
    },
    {
      "lat": "65.8940",
      "lng": "12.3979",
      "name": "Alstahaug kirke, Alstahaug",
      "images": []
    },
    {
      "lat": "58.5847",
      "lng": "6.7230",
      "name": "Haughom kapell",
      "images": []
    },
    {
      "lat": "70.5010",
      "lng": "23.9758",
      "name": "Kvalsund kirke",
      "images": []
    },
    {
      "lat": "60.9028",
      "lng": "10.7247",
      "name": "Ringsaker kirke",
      "images": []
    },
    {
      "lat": "70.7506",
      "lng": "24.5331",
      "name": "Slotten kirke",
      "images": []
    },
    {
      "lat": "63.0179",
      "lng": "8.4966",
      "name": "Åsskard kyrkje",
      "images": []
    },
    {
      "lat": "59.9080",
      "lng": "10.6833",
      "name": "Gol stavkirke, Oslo",
      "images": []
    },
    {
      "lat": "58.4139",
      "lng": "6.6588",
      "name": "Bakke kirke, Sirnes",
      "images": []
    },
    {
      "lat": "59.0641",
      "lng": "5.4164",
      "name": "Kvitsøy kirke",
      "images": []
    },
    {
      "lat": "59.7860",
      "lng": "10.4367",
      "name": "Heggedal kirke",
      "images": []
    },
    {
      "lat": "68.1922",
      "lng": "13.9422",
      "name": "Valberg kirke",
      "images": []
    },
    {
      "lat": "63.7041",
      "lng": "9.7435",
      "name": "Austråt borgkapell",
      "images": []
    },
    {
      "lat": "70.3993",
      "lng": "28.1857",
      "name": "Tana kirke",
      "images": []
    },
    {
      "lat": "62.2224",
      "lng": "9.5684",
      "name": "Eysteinkyrkja",
      "images": []
    },
    {
      "lat": "59.9175",
      "lng": "10.7066",
      "name": "Frogner kirke, Oslo",
      "images": []
    },
    {
      "lat": "59.8500",
      "lng": "10.2138",
      "name": "Sjåstad kirke",
      "images": []
    },
    {
      "lat": "59.8362",
      "lng": "10.7928",
      "name": "Holmlia kirke",
      "images": []
    },
    {
      "lat": "62.9548",
      "lng": "10.1924",
      "name": "Soknedal kirke",
      "images": []
    },
    {
      "lat": "60.5773",
      "lng": "5.4749",
      "name": "Hosanger kyrkje",
      "images": []
    },
    {
      "lat": "62.6729",
      "lng": "11.4297",
      "name": "Glåmos kirke",
      "images": []
    },
    {
      "lat": "66.7437",
      "lng": "13.5770",
      "name": "Halsa kirke, Meløy",
      "images": []
    },
    {
      "lat": "58.3114",
      "lng": "8.1902",
      "name": "Birkenes kirke, Birkenes",
      "images": []
    },
    {
      "lat": "58.9709",
      "lng": "5.7122",
      "name": "Kampen kirke, Stavanger",
      "images": []
    },
    {
      "lat": "59.8849",
      "lng": "10.7882",
      "name": "Bekkelaget kirke, Oslo",
      "images": []
    },
    {
      "lat": "70.4434",
      "lng": "28.4876",
      "name": "Austertana kapell",
      "images": []
    },
    {
      "lat": "58.7734",
      "lng": "5.6244",
      "name": "Klepp kyrkje",
      "images": []
    },
    {
      "lat": "66.3780",
      "lng": "14.5771",
      "name": "Nevernes kirke",
      "images": []
    },
    {
      "lat": "59.7788",
      "lng": "10.7506",
      "name": "Oppegård kirke",
      "images": []
    },
    {
      "lat": "69.4436",
      "lng": "23.6657",
      "name": "Masi kirke",
      "images": []
    },
    {
      "lat": "60.5303",
      "lng": "4.8772",
      "name": "Blomvåg kyrkje",
      "images": []
    },
    {
      "lat": "60.4753",
      "lng": "5.3264",
      "name": "Åsane gamle kirke",
      "images": []
    },
    {
      "lat": "58.5156",
      "lng": "5.8082",
      "name": "Ogna kyrkje",
      "images": []
    },
    {
      "lat": "59.2883",
      "lng": "9.7116",
      "name": "Siljan kirke",
      "images": []
    },
    {
      "lat": "59.9186",
      "lng": "10.6172",
      "name": "Jar kirke",
      "images": []
    },
    {
      "lat": "59.6658",
      "lng": "9.6463",
      "name": "Kongsberg kirke",
      "images": []
    },
    {
      "lat": "60.3309",
      "lng": "5.0757",
      "name": "Fjell kyrkje, Sotra",
      "images": []
    },
    {
      "lat": "69.7883",
      "lng": "20.7081",
      "name": "Rotsund kapell",
      "images": []
    },
    {
      "lat": "68.4054",
      "lng": "16.6604",
      "name": "Kjeldebotn kirke",
      "images": []
    },
    {
      "lat": "63.0757",
      "lng": "8.2467",
      "name": "Halsa kirke, Nordmøre",
      "images": []
    },
    {
      "lat": "63.5148",
      "lng": "9.8067",
      "name": "Lensvik kirke, Agdenes",
      "images": []
    },
    {
      "lat": "59.2105",
      "lng": "9.6061",
      "name": "Skien kirke",
      "images": []
    },
    {
      "lat": "62.4150",
      "lng": "10.9941",
      "name": "Tolga kirke",
      "images": []
    },
    {
      "lat": "62.6567",
      "lng": "9.8767",
      "name": "Fagerhaug kirke",
      "images": []
    },
    {
      "lat": "68.5030",
      "lng": "14.7970",
      "name": "Melbu kirke",
      "images": []
    },
    {
      "lat": "62.7008",
      "lng": "6.9010",
      "name": "Nord-Heggdal kapell",
      "images": []
    },
    {
      "lat": "66.0542",
      "lng": "12.5181",
      "name": "Hestad kirke",
      "images": []
    },
    {
      "lat": "59.2924",
      "lng": "5.2287",
      "name": "Vedavågen kirke",
      "images": []
    },
    {
      "lat": "60.3877",
      "lng": "6.2033",
      "name": "Øystese kyrkje",
      "images": []
    },
    {
      "lat": "59.9313",
      "lng": "10.7212",
      "name": "Majorstuen kirke",
      "images": []
    },
    {
      "lat": "59.1626",
      "lng": "10.3460",
      "name": "Veierland kirke",
      "images": []
    },
    {
      "lat": "58.2633",
      "lng": "7.1996",
      "name": "Kvås kirke",
      "images": []
    },
    {
      "lat": "61.9058",
      "lng": "8.1545",
      "name": "Nordberg kyrkje, Skjåk",
      "images": []
    },
    {
      "lat": "61.0574",
      "lng": "7.5174",
      "name": "Tønjum kyrkje",
      "images": []
    },
    {
      "lat": "58.4416",
      "lng": "8.6982",
      "name": "Bjorbekk kirke",
      "images": []
    },
    {
      "lat": "60.1220",
      "lng": "9.7622",
      "name": "Glesne kapell, Krøderen",
      "images": []
    },
    {
      "lat": "59.8052",
      "lng": "10.6938",
      "name": "Nesodden kirke",
      "images": []
    },
    {
      "lat": "62.0617",
      "lng": "6.3259",
      "name": "Austefjord kyrkje",
      "images": []
    },
    {
      "lat": "63.4984",
      "lng": "10.0094",
      "name": "Stadsbygd kirke",
      "images": []
    },
    {
      "lat": "58.0948",
      "lng": "6.7984",
      "name": "Frelserens kirke, Farsund",
      "images": []
    },
    {
      "lat": "63.5228",
      "lng": "9.0990",
      "name": "Sandstad kirke",
      "images": []
    },
    {
      "lat": "58.9352",
      "lng": "5.6009",
      "name": "Tananger kapell",
      "images": []
    },
    {
      "lat": "62.7527",
      "lng": "7.2939",
      "name": "Røbekk kirke",
      "images": []
    },
    {
      "lat": "62.6069",
      "lng": "6.3308",
      "name": "Hildre kyrkje",
      "images": []
    },
    {
      "lat": "69.2312",
      "lng": "19.2336",
      "name": "Storsteinnes kapell",
      "images": []
    },
    {
      "lat": "58.7893",
      "lng": "7.3510",
      "name": "Ljosland kapell",
      "images": []
    },
    {
      "lat": "62.4380",
      "lng": "7.8501",
      "name": "Kors kirke",
      "images": []
    },
    {
      "lat": "58.2764",
      "lng": "7.9689",
      "name": "Vennesla kirke",
      "images": []
    },
    {
      "lat": "59.9119",
      "lng": "10.7820",
      "name": "Kampen kirke, Oslo",
      "images": []
    },
    {
      "lat": "58.9681",
      "lng": "5.7410",
      "name": "Frue kirke (Hetlandskirken)",
      "images": []
    },
    {
      "lat": "59.7542",
      "lng": "10.1431",
      "name": "Åssiden kirke",
      "images": []
    },
    {
      "lat": "70.1127",
      "lng": "19.3601",
      "name": "Helgøy kirke",
      "images": []
    },
    {
      "lat": "60.7039",
      "lng": "12.3796",
      "name": "Åsnes Finnskog kirke",
      "images": []
    },
    {
      "lat": "59.4243",
      "lng": "5.3809",
      "name": "Førre kirke",
      "images": []
    },
    {
      "lat": "59.2540",
      "lng": "5.8153",
      "name": "Sjernarøy kyrkje",
      "images": []
    },
    {
      "lat": "66.8164",
      "lng": "13.9588",
      "name": "Glomfjord kirke",
      "images": []
    },
    {
      "lat": "60.1948",
      "lng": "12.0105",
      "name": "Vinger kirke",
      "images": []
    },
    {
      "lat": "60.3726",
      "lng": "5.3354",
      "name": "Solheim kirke",
      "images": []
    },
    {
      "lat": "59.2575",
      "lng": "5.1919",
      "name": "Åkra gamle kirke",
      "images": []
    },
    {
      "lat": "59.3823",
      "lng": "10.4598",
      "name": "Borre kirke",
      "images": []
    },
    {
      "lat": "59.7360",
      "lng": "10.2084",
      "name": "Strømsø kirke",
      "images": []
    },
    {
      "lat": "63.4655",
      "lng": "11.1137",
      "name": "Hegra kirke",
      "images": []
    },
    {
      "lat": "59.4093",
      "lng": "10.6862",
      "name": "Ekholt kirke",
      "images": []
    },
    {
      "lat": "62.3356",
      "lng": "8.0685",
      "name": "Øverdalen kirke, Rauma",
      "images": []
    },
    {
      "lat": "63.9669",
      "lng": "11.3481",
      "name": "Hustad kirke, Inderøy",
      "images": []
    },
    {
      "lat": "58.9444",
      "lng": "9.1327",
      "name": "Kroken kyrkje",
      "images": []
    },
    {
      "lat": "60.9590",
      "lng": "10.5920",
      "name": "Biri kirke",
      "images": []
    },
    {
      "lat": "68.0237",
      "lng": "16.1390",
      "name": "Drag/Helland kirke",
      "images": []
    },
    {
      "lat": "59.1113",
      "lng": "9.6490",
      "name": "Herøya kirke, Klevstrand",
      "images": []
    },
    {
      "lat": "59.2369",
      "lng": "10.4636",
      "name": "Husøy kirke, Tønsberg",
      "images": []
    },
    {
      "lat": "61.8398",
      "lng": "8.5661",
      "name": "Lom stavkyrkje",
      "images": []
    },
    {
      "lat": "63.3615",
      "lng": "10.4054",
      "name": "Tiller kirke",
      "images": []
    },
    {
      "lat": "61.0989",
      "lng": "7.4951",
      "name": "Hauge kyrkje",
      "images": []
    },
    {
      "lat": "59.7646",
      "lng": "9.9051",
      "name": "Haug kirke, Øvre Eiker",
      "images": []
    },
    {
      "lat": "60.3763",
      "lng": "6.7220",
      "name": "Kinsarvik kyrkje",
      "images": []
    },
    {
      "lat": "59.1136",
      "lng": "10.3916",
      "name": "Tjøme kirke",
      "images": []
    },
    {
      "lat": "59.0904",
      "lng": "9.7930",
      "name": "Langangen kirke",
      "images": []
    },
    {
      "lat": "61.2906",
      "lng": "11.2741",
      "name": "Strand kirke, Stor-Elvdal",
      "images": []
    },
    {
      "lat": "63.6367",
      "lng": "11.2745",
      "name": "Markabygda kirke",
      "images": []
    },
    {
      "lat": "59.1546",
      "lng": "6.1908",
      "name": "Årdal gamle kyrkje, Ryfylke",
      "images": []
    },
    {
      "lat": "69.0193",
      "lng": "15.1561",
      "name": "Langenes kirke, Øksnes",
      "images": []
    },
    {
      "lat": "59.5505",
      "lng": "11.3280",
      "name": "Mysen kirke",
      "images": []
    },
    {
      "lat": "60.3900",
      "lng": "5.3326",
      "name": "Nonneseter klosterkapell",
      "images": []
    },
    {
      "lat": "62.5218",
      "lng": "7.1381",
      "name": "Tresfjord kyrkje",
      "images": []
    },
    {
      "lat": "61.1026",
      "lng": "10.6924",
      "name": "Mesnali kirke",
      "images": []
    },
    {
      "lat": "59.3503",
      "lng": "11.1896",
      "name": "Varteig kirke",
      "images": []
    },
    {
      "lat": "61.8069",
      "lng": "6.5203",
      "name": "Utvik kyrkje",
      "images": []
    },
    {
      "lat": "63.4330",
      "lng": "10.6730",
      "name": "Malvik kirke",
      "images": []
    },
    {
      "lat": "68.2554",
      "lng": "17.4008",
      "name": "Skjomen kirke",
      "images": []
    },
    {
      "lat": "59.4906",
      "lng": "8.2322",
      "name": "Høydalsmo kyrkje",
      "images": []
    },
    {
      "lat": "59.1442",
      "lng": "11.4547",
      "name": "Asak kirke",
      "images": []
    },
    {
      "lat": "59.4677",
      "lng": "11.1745",
      "name": "Skiptvet kirke",
      "images": []
    },
    {
      "lat": "63.4110",
      "lng": "10.4004",
      "name": "Tempe kirke",
      "images": []
    },
    {
      "lat": "70.0560",
      "lng": "22.3626",
      "name": "Langfjord kirke",
      "images": []
    },
    {
      "lat": "63.4448",
      "lng": "10.9342",
      "name": "Lånke kirke",
      "images": []
    },
    {
      "lat": "59.3464",
      "lng": "10.2546",
      "name": "Ramnes kirke",
      "images": []
    },
    {
      "lat": "58.3417",
      "lng": "8.5228",
      "name": "Landvik kirke",
      "images": []
    },
    {
      "lat": "68.8755",
      "lng": "16.5660",
      "name": "Lundenes kirke, Grytøy",
      "images": []
    },
    {
      "lat": "589.2387",
      "lng": "22.4964",
      "name": "Orre kirke, Pollestad",
      "images": []
    },
    {
      "lat": "59.6707",
      "lng": "10.5551",
      "name": "Kongsdelene kirke",
      "images": []
    },
    {
      "lat": "58.8256",
      "lng": "6.0316",
      "name": "Oltedal kirke",
      "images": []
    },
    {
      "lat": "61.4036",
      "lng": "6.7396",
      "name": "Fjærland kyrkje",
      "images": []
    },
    {
      "lat": "58.8309",
      "lng": "5.7506",
      "name": "Høyland kirke, Sandnes",
      "images": []
    },
    {
      "lat": "67.2971",
      "lng": "14.7366",
      "name": "Tverlandet kirke",
      "images": []
    },
    {
      "lat": "68.9002",
      "lng": "15.2769",
      "name": "Alsvåg kirke",
      "images": []
    },
    {
      "lat": "59.4145",
      "lng": "5.2701",
      "name": "Vår Frelsers kirke, Haugesund",
      "images": []
    },
    {
      "lat": "61.9324",
      "lng": "5.3881",
      "name": "Totland kyrkje",
      "images": []
    },
    {
      "lat": "62.7908",
      "lng": "11.1812",
      "name": "Hessdalen kirke",
      "images": []
    },
    {
      "lat": "58.7691",
      "lng": "5.8454",
      "name": "Ålgård kyrkje",
      "images": []
    },
    {
      "lat": "58.3407",
      "lng": "7.2056",
      "name": "Hægebostad kirke",
      "images": []
    },
    {
      "lat": "59.2238",
      "lng": "5.4406",
      "name": "Bokn kyrkje",
      "images": []
    },
    {
      "lat": "60.3862",
      "lng": "5.7678",
      "name": "Haga kyrkje",
      "images": []
    },
    {
      "lat": "60.8052",
      "lng": "10.8401",
      "name": "Stavsjø kirke",
      "images": []
    },
    {
      "lat": "59.1032",
      "lng": "5.5906",
      "name": "Utstein klosterkyrkje",
      "images": []
    },
    {
      "lat": "59.8627",
      "lng": "9.4331",
      "name": "Flesberg stavkirke",
      "images": []
    },
    {
      "lat": "61.5607",
      "lng": "6.4000",
      "name": "Helgheim kyrkje, Jølster",
      "images": []
    },
    {
      "lat": "60.6477",
      "lng": "9.7837",
      "name": "Begnadalen kirke",
      "images": []
    },
    {
      "lat": "58.2588",
      "lng": "8.3652",
      "name": "Vestre Moland kirke",
      "images": []
    },
    {
      "lat": "59.8872",
      "lng": "9.8797",
      "name": "Nykirke kirke, Modum",
      "images": []
    },
    {
      "lat": "60.3989",
      "lng": "5.3235",
      "name": "Mariakirken, Bergen",
      "images": []
    },
    {
      "lat": "62.9071",
      "lng": "11.8932",
      "name": "Stugudal kapell",
      "images": []
    },
    {
      "lat": "59.9319",
      "lng": "10.7874",
      "name": "Sinsen kirke",
      "images": []
    },
    {
      "lat": "59.6119",
      "lng": "9.6564",
      "name": "Hedenstad kirke",
      "images": []
    },
    {
      "lat": "67.6930",
      "lng": "12.7095",
      "name": "Værøy gamle kirke",
      "images": []
    },
    {
      "lat": "59.1343",
      "lng": "10.2265",
      "name": "Sandar kirke",
      "images": []
    },
    {
      "lat": "58.8402",
      "lng": "5.7142",
      "name": "Gand kirke",
      "images": []
    },
    {
      "lat": "70.2591",
      "lng": "23.4159",
      "name": "Komagfjord kirke",
      "images": []
    },
    {
      "lat": "59.6715",
      "lng": "10.7687",
      "name": "Ås kirke, Ås",
      "images": []
    },
    {
      "lat": "60.9268",
      "lng": "11.6336",
      "name": "Hernes kirke",
      "images": []
    },
    {
      "lat": "59.7547",
      "lng": "10.8432",
      "name": "Langhus kirke",
      "images": []
    },
    {
      "lat": "59.3059",
      "lng": "9.1140",
      "name": "Lunde kirke, Nome",
      "images": []
    },
    {
      "lat": "58.9703",
      "lng": "5.7333",
      "name": "Stavanger domkirke",
      "images": []
    },
    {
      "lat": "69.4667",
      "lng": "25.5037",
      "name": "Karasjok gamle kirke",
      "images": []
    },
    {
      "lat": "68.9242",
      "lng": "17.1182",
      "name": "Andørja kirke, Andørja",
      "images": []
    },
    {
      "lat": "60.2380",
      "lng": "10.3818",
      "name": "Randsfjord kirke",
      "images": []
    },
    {
      "lat": "63.9670",
      "lng": "10.2202",
      "name": "Åfjord kirke",
      "images": []
    },
    {
      "lat": "58.5993",
      "lng": "7.8312",
      "name": "Evje kyrkje",
      "images": []
    },
    {
      "lat": "59.2359",
      "lng": "6.1807",
      "name": "Hjelmeland kyrkje",
      "images": []
    },
    {
      "lat": "60.8490",
      "lng": "10.0787",
      "name": "Østsinni kirke",
      "images": []
    },
    {
      "lat": "59.7836",
      "lng": "5.9028",
      "name": "Holmedal kyrkje, Kvinnherad",
      "images": []
    },
    {
      "lat": "64.4669",
      "lng": "12.2964",
      "name": "Grong kirke",
      "images": []
    },
    {
      "lat": "59.7207",
      "lng": "10.1406",
      "name": "Konnerud gamle kirke",
      "images": []
    },
    {
      "lat": "62.3823",
      "lng": "6.5518",
      "name": "Ikornnes kyrkje",
      "images": []
    },
    {
      "lat": "59.9264",
      "lng": "10.7583",
      "name": "Paulus kirke",
      "images": []
    },
    {
      "lat": "62.7383",
      "lng": "7.1604",
      "name": "Molde domkirke",
      "images": []
    },
    {
      "lat": "61.0117",
      "lng": "10.7801",
      "name": "Åsmarka kirke",
      "images": []
    },
    {
      "lat": "58.9447",
      "lng": "5.7412",
      "name": "Hillevåg kirke, Stavanger",
      "images": []
    },
    {
      "lat": "60.2589",
      "lng": "8.9992",
      "name": "Skjønne kirke",
      "images": []
    },
    {
      "lat": "67.0063",
      "lng": "14.5720",
      "name": "Beiarn kirke",
      "images": []
    },
    {
      "lat": "62.2994",
      "lng": "7.2631",
      "name": "Sylte kyrkje, Valldal",
      "images": []
    },
    {
      "lat": "62.6769",
      "lng": "7.5679",
      "name": "Holm kyrkje",
      "images": []
    },
    {
      "lat": "59.9293",
      "lng": "10.6874",
      "name": "Skøyen kirke",
      "images": []
    },
    {
      "lat": "59.2095",
      "lng": "10.9428",
      "name": "Fredrikstad domkirke",
      "images": []
    },
    {
      "lat": "58.5837",
      "lng": "6.0769",
      "name": "Bjerkreim kyrkje",
      "images": []
    },
    {
      "lat": "63.3094",
      "lng": "10.1870",
      "name": "Buvik kirke",
      "images": []
    },
    {
      "lat": "61.4917",
      "lng": "5.3968",
      "name": "Vevring kyrkje",
      "images": []
    },
    {
      "lat": "60.5720",
      "lng": "5.2334",
      "name": "Alversund kyrkje",
      "images": []
    },
    {
      "lat": "63.1957",
      "lng": "10.3078",
      "name": "Flå kirke, Sør-Trøndelag",
      "images": []
    },
    {
      "lat": "67.0592",
      "lng": "14.0453",
      "name": "Gildeskål gamle kirke",
      "images": []
    },
    {
      "lat": "59.5913",
      "lng": "5.5869",
      "name": "Vikebygd kyrkje",
      "images": []
    },
    {
      "lat": "58.8286",
      "lng": "5.8278",
      "name": "Sviland kapell",
      "images": []
    },
    {
      "lat": "60.7446",
      "lng": "10.9586",
      "name": "Helgøya kirke, Ringsaker",
      "images": []
    },
    {
      "lat": "58.6069",
      "lng": "8.8705",
      "name": "Holt kirke, Tvedestrand",
      "images": []
    },
    {
      "lat": "63.3997",
      "lng": "11.8403",
      "name": "Kopperå kapell",
      "images": []
    },
    {
      "lat": "69.0029",
      "lng": "23.0477",
      "name": "Kautokeino kirke",
      "images": []
    },
    {
      "lat": "59.2539",
      "lng": "9.3591",
      "name": "Helgen kirke",
      "images": []
    },
    {
      "lat": "65.0888",
      "lng": "11.7102",
      "name": "Leka kirke",
      "images": []
    },
    {
      "lat": "60.0657",
      "lng": "5.0996",
      "name": "Møkster kirke, Stolmen",
      "images": []
    },
    {
      "lat": "62.2002",
      "lng": "6.1306",
      "name": "Ørsta kyrkje",
      "images": []
    },
    {
      "lat": "59.3345",
      "lng": "8.8049",
      "name": "Kilen kapell",
      "images": []
    },
    {
      "lat": "68.1440",
      "lng": "13.8392",
      "name": "Stamsund kirke",
      "images": []
    },
    {
      "lat": "60.4285",
      "lng": "9.4662",
      "name": "Flå kirke, Hallingdal",
      "images": []
    },
    {
      "lat": "60.4543",
      "lng": "5.1316",
      "name": "Tveit kirke, Askøy",
      "images": []
    },
    {
      "lat": "60.4246",
      "lng": "5.2984",
      "name": "Biskopshavn kirke",
      "images": []
    },
    {
      "lat": "60.1844",
      "lng": "5.4690",
      "name": "Os kyrkje, Osøyro",
      "images": []
    },
    {
      "lat": "59.9490",
      "lng": "10.6228",
      "name": "Grinilund kirke",
      "images": []
    },
    {
      "lat": "59.5055",
      "lng": "5.5882",
      "name": "Skjold kyrkje, Vindafjord",
      "images": []
    },
    {
      "lat": "62.5032",
      "lng": "6.1302",
      "name": "Valderøy kyrkje",
      "images": []
    },
    {
      "lat": "61.8273",
      "lng": "6.8084",
      "name": "Olden kyrkje",
      "images": []
    },
    {
      "lat": "69.7612",
      "lng": "19.8443",
      "name": "Lenangsøyra kapell",
      "images": []
    },
    {
      "lat": "60.4791",
      "lng": "5.6775",
      "name": "Bruvik kyrkje",
      "images": []
    },
    {
      "lat": "59.6125",
      "lng": "5.4805",
      "name": "Førde kyrkje, Sveio",
      "images": []
    },
    {
      "lat": "59.4511",
      "lng": "11.2383",
      "name": "Os kirke, Rakkestad",
      "images": []
    },
    {
      "lat": "60.8228",
      "lng": "11.6344",
      "name": "Heradsbygd kirke",
      "images": []
    },
    {
      "lat": "59.4827",
      "lng": "6.2524",
      "name": "Sand kyrkje, Suldal",
      "images": []
    },
    {
      "lat": "59.3477",
      "lng": "10.4681",
      "name": "Åsgårdstrand kirke",
      "images": []
    },
    {
      "lat": "60.0200",
      "lng": "11.1058",
      "name": "Frogner kirke, Sørum",
      "images": []
    },
    {
      "lat": "62.7907",
      "lng": "6.9170",
      "name": "Aukra kyrkje",
      "images": []
    },
    {
      "lat": "59.9269",
      "lng": "11.4568",
      "name": "Aurskog kirke",
      "images": []
    },
    {
      "lat": "61.0734",
      "lng": "6.9395",
      "name": "Fresvik kyrkje",
      "images": []
    },
    {
      "lat": "65.9732",
      "lng": "12.2779",
      "name": "Herøy kirke",
      "images": []
    },
    {
      "lat": "60.0405",
      "lng": "5.5312",
      "name": "Tysnes kyrkje",
      "images": []
    },
    {
      "lat": "69.1140",
      "lng": "15.9816",
      "name": "Dverberg kirke",
      "images": []
    },
    {
      "lat": "68.7271",
      "lng": "15.1519",
      "name": "Indre Eidsfjord kirke",
      "images": []
    },
    {
      "lat": "60.0901",
      "lng": "11.0873",
      "name": "Gjerdrum kirke",
      "images": []
    },
    {
      "lat": "62.4274",
      "lng": "6.2997",
      "name": "Indre Sula kyrkje",
      "images": []
    },
    {
      "lat": "62.2560",
      "lng": "7.2370",
      "name": "Norddal kyrkje",
      "images": []
    },
    {
      "lat": "59.9075",
      "lng": "10.7380",
      "name": "Akershus slottskirke",
      "images": []
    },
    {
      "lat": "62.6058",
      "lng": "7.3218",
      "name": "Vågstranda kyrkje",
      "images": []
    },
    {
      "lat": "58.9026",
      "lng": "8.7494",
      "name": "Felle kapell",
      "images": []
    },
    {
      "lat": "58.1342",
      "lng": "8.1175",
      "name": "Randesund kirke",
      "images": []
    },
    {
      "lat": "59.1619",
      "lng": "8.5058",
      "name": "Nissedal kyrkje",
      "images": []
    },
    {
      "lat": "66.0766",
      "lng": "13.8254",
      "name": "Korgen kirke",
      "images": []
    },
    {
      "lat": "64.4555",
      "lng": "10.7615",
      "name": "Vik kirke",
      "images": []
    },
    {
      "lat": "58.0465",
      "lng": "7.1419",
      "name": "Spangereid kirke",
      "images": []
    },
    {
      "lat": "58.9646",
      "lng": "5.6901",
      "name": "Stokka kirke, Stavanger",
      "images": []
    },
    {
      "lat": "62.9200",
      "lng": "7.7534",
      "name": "Øre kyrkje",
      "images": []
    },
    {
      "lat": "60.7847",
      "lng": "5.9591",
      "name": "Eksingedal kyrkje",
      "images": []
    },
    {
      "lat": "61.8081",
      "lng": "6.1417",
      "name": "Vereide kyrkje",
      "images": []
    },
    {
      "lat": "60.3646",
      "lng": "5.3718",
      "name": "Landås kirke",
      "images": []
    },
    {
      "lat": "70.1195",
      "lng": "23.3958",
      "name": "Leirbotn kirke",
      "images": []
    },
    {
      "lat": "62.8761",
      "lng": "9.8337",
      "name": "Rennebu kirke",
      "images": []
    },
    {
      "lat": "69.4458",
      "lng": "17.2996",
      "name": "Berg kirke, Skaland",
      "images": []
    },
    {
      "lat": "60.7940",
      "lng": "10.6569",
      "name": "Hunn kirke",
      "images": []
    },
    {
      "lat": "62.3826",
      "lng": "7.0005",
      "name": "Stordal kyrkje",
      "images": []
    },
    {
      "lat": "59.9181",
      "lng": "10.7544",
      "name": "Jakob kirke, Oslo",
      "images": []
    },
    {
      "lat": "62.0993",
      "lng": "11.6609",
      "name": "Sømådal kirke",
      "images": []
    },
    {
      "lat": "62.0909",
      "lng": "5.7440",
      "name": "Syvde kyrkje",
      "images": []
    },
    {
      "lat": "61.7337",
      "lng": "6.4079",
      "name": "Breim kyrkje",
      "images": []
    },
    {
      "lat": "68.4393",
      "lng": "17.4134",
      "name": "Narvik kirke",
      "images": []
    },
    {
      "lat": "61.1328",
      "lng": "8.8907",
      "name": "Lomen kyrkje",
      "images": []
    },
    {
      "lat": "60.6753",
      "lng": "5.2155",
      "name": "Hundvin kyrkje",
      "images": []
    },
    {
      "lat": "63.0559",
      "lng": "11.5657",
      "name": "Tydal kirke",
      "images": []
    },
    {
      "lat": "59.4110",
      "lng": "9.0563",
      "name": "Bø gamle kyrkje, Bø i Telemark",
      "images": []
    },
    {
      "lat": "60.3901",
      "lng": "11.5440",
      "name": "Sand kirke, Nord-Odal",
      "images": []
    },
    {
      "lat": "59.9573",
      "lng": "10.8686",
      "name": "Rødtvet kirke",
      "images": []
    },
    {
      "lat": "59.7196",
      "lng": "10.7728",
      "name": "Nordby kirke, Ås",
      "images": []
    },
    {
      "lat": "60.6228",
      "lng": "8.1577",
      "name": "Hovet kyrkje",
      "images": []
    },
    {
      "lat": "59.9297",
      "lng": "10.7265",
      "name": "Døvekirken i Oslo",
      "images": []
    },
    {
      "lat": "60.5353",
      "lng": "8.2105",
      "name": "Geilo kyrkje",
      "images": []
    },
    {
      "lat": "65.5831",
      "lng": "13.3967",
      "name": "Grane kirke",
      "images": []
    },
    {
      "lat": "59.9475",
      "lng": "10.7012",
      "name": "Ris kirke",
      "images": []
    },
    {
      "lat": "59.8128",
      "lng": "10.4640",
      "name": "Østenstad kirke",
      "images": []
    },
    {
      "lat": "61.3002",
      "lng": "11.7628",
      "name": "Nordre Osen kirke",
      "images": []
    },
    {
      "lat": "59.6040",
      "lng": "8.6396",
      "name": "Råde kirke",
      "images": []
    },
    {
      "lat": "63.6694",
      "lng": "8.3088",
      "name": "Titran kapell",
      "images": []
    },
    {
      "lat": "60.7098",
      "lng": "10.8625",
      "name": "Kapp kirke",
      "images": []
    },
    {
      "lat": "63.3936",
      "lng": "11.0659",
      "name": "Elvran kapell",
      "images": []
    },
    {
      "lat": "62.2408",
      "lng": "5.4431",
      "name": "Sande kyrkje, Sunnmøre",
      "images": []
    },
    {
      "lat": "62.9648",
      "lng": "7.4567",
      "name": "Kornstad kirke",
      "images": []
    },
    {
      "lat": "69.5326",
      "lng": "19.6411",
      "name": "Ullsfjord kirke, Sjursnes",
      "images": []
    },
    {
      "lat": "59.5468",
      "lng": "5.8576",
      "name": "Sandeid kyrkje",
      "images": []
    },
    {
      "lat": "58.3800",
      "lng": "7.5278",
      "name": "Bjelland kyrkje",
      "images": []
    },
    {
      "lat": "69.6811",
      "lng": "19.0628",
      "name": "Tromsø døvekirke",
      "images": []
    },
    {
      "lat": "60.6640",
      "lng": "8.7084",
      "name": "Torpo stavkyrkje",
      "images": []
    },
    {
      "lat": "59.7300",
      "lng": "10.2349",
      "name": "Tangen kirke, Drammen",
      "images": []
    },
    {
      "lat": "59.2302",
      "lng": "10.4068",
      "name": "Nøtterøy kirke",
      "images": []
    },
    {
      "lat": "70.0190",
      "lng": "23.5342",
      "name": "Rafsbotn kapell",
      "images": []
    },
    {
      "lat": "59.3720",
      "lng": "9.2220",
      "name": "Nes kyrkje",
      "images": []
    },
    {
      "lat": "62.4671",
      "lng": "8.1894",
      "name": "Eikesdal kyrkje",
      "images": []
    },
    {
      "lat": "62.4922",
      "lng": "6.2715",
      "name": "Ellingsøy kyrkje",
      "images": []
    },
    {
      "lat": "58.1526",
      "lng": "8.0120",
      "name": "Lund kirke, Kristiansand",
      "images": []
    },
    {
      "lat": "69.6919",
      "lng": "25.9315",
      "name": "Valjok kirke",
      "images": []
    },
    {
      "lat": "59.3095",
      "lng": "4.8828",
      "name": "Utsira kirke",
      "images": []
    },
    {
      "lat": "62.8139",
      "lng": "8.7163",
      "name": "Todalen kyrkje",
      "images": []
    },
    {
      "lat": "70.1452",
      "lng": "28.8607",
      "name": "Nesseby kirke",
      "images": []
    },
    {
      "lat": "58.6880",
      "lng": "6.1595",
      "name": "Ivesdal kapell, Øvrebygd",
      "images": []
    },
    {
      "lat": "61.1534",
      "lng": "8.8045",
      "name": "Høre stavkyrkje",
      "images": []
    },
    {
      "lat": "64.1723",
      "lng": "10.2269",
      "name": "Roan kirke (Fosenkatedralen)",
      "images": []
    },
    {
      "lat": "63.4255",
      "lng": "10.4424",
      "name": "Strindheim kirke",
      "images": []
    },
    {
      "lat": "61.1705",
      "lng": "8.6949",
      "name": "Heensåsen kyrkje",
      "images": []
    },
    {
      "lat": "59.6951",
      "lng": "5.4760",
      "name": "Valen kapell, Sveio",
      "images": []
    },
    {
      "lat": "60.6682",
      "lng": "10.9500",
      "name": "Balke kirke",
      "images": []
    },
    {
      "lat": "60.0978",
      "lng": "10.2164",
      "name": "Hole kirke",
      "images": []
    },
    {
      "lat": "59.0416",
      "lng": "9.6996",
      "name": "Stathelle kirke",
      "images": []
    },
    {
      "lat": "60.0300",
      "lng": "12.1252",
      "name": "Eidskog kirke",
      "images": []
    },
    {
      "lat": "59.3982",
      "lng": "9.5387",
      "name": "Luksefjell kirke",
      "images": []
    },
    {
      "lat": "61.1109",
      "lng": "10.4764",
      "name": "Garmo stavkirke, Maihaugen",
      "images": []
    },
    {
      "lat": "59.0980",
      "lng": "9.0647",
      "name": "Drangedal kirke",
      "images": []
    },
    {
      "lat": "60.2297",
      "lng": "5.8720",
      "name": "Hålandsdal kyrkje",
      "images": []
    },
    {
      "lat": "58.7264",
      "lng": "5.6955",
      "name": "Time kyrkje",
      "images": []
    },
    {
      "lat": "60.5021",
      "lng": "11.3828",
      "name": "Trøftskogen kapell",
      "images": []
    },
    {
      "lat": "61.0133",
      "lng": "4.6742",
      "name": "Husøy kyrkje",
      "images": []
    },
    {
      "lat": "61.1577",
      "lng": "9.0237",
      "name": "Hegge stavkyrkje",
      "images": []
    },
    {
      "lat": "68.6440",
      "lng": "15.5192",
      "name": "Sigerfjord kirke",
      "images": []
    },
    {
      "lat": "69.3185",
      "lng": "16.1267",
      "name": "Andenes kirke",
      "images": []
    },
    {
      "lat": "60.9509",
      "lng": "7.1023",
      "name": "Undredal stavkyrkje",
      "images": []
    },
    {
      "lat": "59.7319",
      "lng": "5.9397",
      "name": "Skånevik kyrkje",
      "images": []
    },
    {
      "lat": "70.4886",
      "lng": "22.1549",
      "name": "Hasvik kirke",
      "images": []
    },
    {
      "lat": "59.9328",
      "lng": "10.7529",
      "name": "Iladalen kirke",
      "images": []
    },
    {
      "lat": "70.3347",
      "lng": "21.4542",
      "name": "Loppa kirke",
      "images": []
    },
    {
      "lat": "62.9807",
      "lng": "8.7186",
      "name": "Øye kyrkje, Surnadal",
      "images": []
    },
    {
      "lat": "58.7583",
      "lng": "8.8588",
      "name": "Vegårshei kirke",
      "images": []
    },
    {
      "lat": "59.1551",
      "lng": "8.8107",
      "name": "Tørdal kirke",
      "images": []
    },
    {
      "lat": "68.7876",
      "lng": "17.1542",
      "name": "Ibestad kirke",
      "images": []
    },
    {
      "lat": "61.8759",
      "lng": "9.0977",
      "name": "Vågåkyrkja",
      "images": []
    },
    {
      "lat": "62.7991",
      "lng": "7.6550",
      "name": "Kleive kirke",
      "images": []
    },
    {
      "lat": "63.2658",
      "lng": "8.5283",
      "name": "Aure kirke",
      "images": []
    },
    {
      "lat": "69.4535",
      "lng": "30.0549",
      "name": "Svanvik kirke",
      "images": []
    },
    {
      "lat": "59.7749",
      "lng": "10.8030",
      "name": "Greverud kirke",
      "images": []
    },
    {
      "lat": "62.6131",
      "lng": "7.1430",
      "name": "Vike kyrkje, Vestnes",
      "images": []
    },
    {
      "lat": "59.8997",
      "lng": "10.8431",
      "name": "Oppsal kirke",
      "images": []
    },
    {
      "lat": "61.8393",
      "lng": "10.8892",
      "name": "Hanestad kirke",
      "images": []
    },
    {
      "lat": "62.7881",
      "lng": "9.6225",
      "name": "Nerskogen kapell",
      "images": []
    },
    {
      "lat": "59.8769",
      "lng": "11.5595",
      "name": "Bjørkelangen kirke",
      "images": []
    },
    {
      "lat": "58.9083",
      "lng": "11.5218",
      "name": "Søndre Enningdal kirke",
      "images": []
    },
    {
      "lat": "58.9506",
      "lng": "5.7023",
      "name": "Tjensvoll kirke",
      "images": []
    },
    {
      "lat": "61.1345",
      "lng": "12.1092",
      "name": "Tørberget kirke",
      "images": []
    },
    {
      "lat": "60.6265",
      "lng": "5.4873",
      "name": "Ostereidet kyrkje",
      "images": []
    },
    {
      "lat": "63.4049",
      "lng": "10.3709",
      "name": "Havstein kirke",
      "images": []
    },
    {
      "lat": "63.4462",
      "lng": "10.4386",
      "name": "Lade kirke",
      "images": []
    },
    {
      "lat": "63.4238",
      "lng": "9.0933",
      "name": "Heim kirke",
      "images": []
    },
    {
      "lat": "63.0246",
      "lng": "7.8031",
      "name": "Frei kirke",
      "images": []
    },
    {
      "lat": "59.6699",
      "lng": "6.0040",
      "name": "Grindheim kyrkje, Etne",
      "images": []
    },
    {
      "lat": "61.5875",
      "lng": "7.2833",
      "name": "Jostedal kyrkje",
      "images": []
    },
    {
      "lat": "70.9966",
      "lng": "24.6565",
      "name": "Havøysund kirke, Måsøy",
      "images": []
    },
    {
      "lat": "60.0015",
      "lng": "11.3017",
      "name": "Blaker kirke",
      "images": []
    },
    {
      "lat": "60.2436",
      "lng": "11.7635",
      "name": "Strøm kirke",
      "images": []
    },
    {
      "lat": "59.2360",
      "lng": "11.0088",
      "name": "Kjølstad kirke",
      "images": []
    },
    {
      "lat": "62.7324",
      "lng": "7.4250",
      "name": "Røvik kirke",
      "images": []
    },
    {
      "lat": "60.4152",
      "lng": "10.5449",
      "name": "Moen kirke",
      "images": []
    },
    {
      "lat": "60.7622",
      "lng": "10.9431",
      "name": "Nes kirke, Ringsaker",
      "images": []
    },
    {
      "lat": "59.6731",
      "lng": "5.9657",
      "name": "Stødle kyrkje, Etne",
      "images": []
    },
    {
      "lat": "59.3278",
      "lng": "8.4168",
      "name": "Vrådal kyrkje",
      "images": []
    },
    {
      "lat": "65.9826",
      "lng": "13.2654",
      "name": "Drevja kirke",
      "images": []
    },
    {
      "lat": "59.2805",
      "lng": "9.2630",
      "name": "Holla kirke, Ulefoss",
      "images": []
    },
    {
      "lat": "59.8964",
      "lng": "10.8109",
      "name": "Manglerud kirke",
      "images": []
    },
    {
      "lat": "61.3170",
      "lng": "12.2610",
      "name": "Trysil kirke",
      "images": []
    },
    {
      "lat": "61.9885",
      "lng": "5.1520",
      "name": "Nord-Vågsøy kyrkje",
      "images": []
    },
    {
      "lat": "63.6059",
      "lng": "10.0124",
      "name": "Rissa kirke",
      "images": []
    },
    {
      "lat": "66.6593",
      "lng": "13.0773",
      "name": "Rødøy kirke",
      "images": []
    },
    {
      "lat": "59.4920",
      "lng": "10.0112",
      "name": "Tuft kirke",
      "images": []
    },
    {
      "lat": "59.8469",
      "lng": "10.6714",
      "name": "Skoklefall kirke",
      "images": []
    },
    {
      "lat": "60.7098",
      "lng": "11.1359",
      "name": "Stange kirke",
      "images": []
    },
    {
      "lat": "59.6089",
      "lng": "5.2146",
      "name": "Bømlo gamle kyrkje",
      "images": []
    },
    {
      "lat": "59.2090",
      "lng": "9.4288",
      "name": "Melum kirke",
      "images": []
    },
    {
      "lat": "61.3188",
      "lng": "4.9627",
      "name": "Vilnes kyrkje",
      "images": []
    },
    {
      "lat": "58.4017",
      "lng": "8.6931",
      "name": "Engene kirke",
      "images": []
    },
    {
      "lat": "59.6040",
      "lng": "8.6396",
      "name": "Hjartdal kyrkje",
      "images": []
    },
    {
      "lat": "59.3552",
      "lng": "8.5238",
      "name": "Kviteseid gamle kyrkje",
      "images": []
    },
    {
      "lat": "61.8716",
      "lng": "6.8576",
      "name": "Loen kyrkje",
      "images": []
    },
    {
      "lat": "62.6092",
      "lng": "11.6314",
      "name": "Hitterdal kapell",
      "images": []
    },
    {
      "lat": "60.2556",
      "lng": "9.6513",
      "name": "Veikåker kapell",
      "images": []
    },
    {
      "lat": "59.2377",
      "lng": "10.9712",
      "name": "Gamle Glemmen kirke",
      "images": []
    },
    {
      "lat": "62.8302",
      "lng": "10.0027",
      "name": "Berkåk kirke",
      "images": []
    },
    {
      "lat": "60.9428",
      "lng": "11.7737",
      "name": "Sørskogbygda kirke",
      "images": []
    },
    {
      "lat": "60.8691",
      "lng": "9.2176",
      "name": "Tisleidalen kirke",
      "images": []
    },
    {
      "lat": "69.3112",
      "lng": "19.3466",
      "name": "Balsfjord kirke",
      "images": []
    },
    {
      "lat": "63.7516",
      "lng": "10.0867",
      "name": "Ramsvik kirke",
      "images": []
    },
    {
      "lat": "67.2741",
      "lng": "14.4348",
      "name": "Bodin kirke",
      "images": []
    },
    {
      "lat": "64.1033",
      "lng": "11.5448",
      "name": "Føling kirke",
      "images": []
    },
    {
      "lat": "71.0659",
      "lng": "28.2475",
      "name": "Gamvik kirke",
      "images": []
    },
    {
      "lat": "58.4480",
      "lng": "6.5535",
      "name": "Lund kirke, Moi",
      "images": []
    },
    {
      "lat": "59.4083",
      "lng": "8.0142",
      "name": "Skafså kyrkje",
      "images": []
    },
    {
      "lat": "66.2005",
      "lng": "13.0256",
      "name": "Nesna kirke",
      "images": []
    },
    {
      "lat": "59.0517",
      "lng": "9.7045",
      "name": "Brevik kirke",
      "images": []
    },
    {
      "lat": "59.0007",
      "lng": "9.7461",
      "name": "Langesund kirke",
      "images": []
    },
    {
      "lat": "59.7784",
      "lng": "10.4883",
      "name": "Slemmestad kirke",
      "images": []
    },
    {
      "lat": "60.9951",
      "lng": "9.1137",
      "name": "Ulnes kyrkje",
      "images": []
    },
    {
      "lat": "68.6171",
      "lng": "14.5493",
      "name": "Bø kirke, Vesterålen",
      "images": []
    },
    {
      "lat": "64.5110",
      "lng": "11.2983",
      "name": "Otterøy kirke, Namsos",
      "images": []
    },
    {
      "lat": "63.4304",
      "lng": "10.3843",
      "name": "Hospitalskirken, Trondheim",
      "images": []
    },
    {
      "lat": "59.4885",
      "lng": "10.8680",
      "name": "Våler kirke, Østfold",
      "images": []
    },
    {
      "lat": "67.5189",
      "lng": "14.7588",
      "name": "Kjerringøy kirke",
      "images": []
    },
    {
      "lat": "60.4289",
      "lng": "11.6358",
      "name": "Mo kirke, Nord-Odal",
      "images": []
    },
    {
      "lat": "61.4558",
      "lng": "5.8627",
      "name": "Førde kyrkje",
      "images": []
    },
    {
      "lat": "64.9192",
      "lng": "13.0788",
      "name": "Bjørhusdal kapell",
      "images": []
    },
    {
      "lat": "63.1378",
      "lng": "8.4909",
      "name": "Valsøyfjord kirke",
      "images": []
    },
    {
      "lat": "60.2577",
      "lng": "10.4344",
      "name": "Jevnaker kirke",
      "images": []
    },
    {
      "lat": "61.0989",
      "lng": "7.4951",
      "name": "Årdal kyrkje, Nedre Årdal",
      "images": []
    },
    {
      "lat": "58.6625",
      "lng": "5.6262",
      "name": "Nærbø gamle kyrkje",
      "images": []
    },
    {
      "lat": "58.6237",
      "lng": "8.9277",
      "name": "Tvedestrand kirke",
      "images": []
    },
    {
      "lat": "59.6650",
      "lng": "5.6444",
      "name": "Bjoa kyrkje",
      "images": []
    },
    {
      "lat": "61.0466",
      "lng": "7.8124",
      "name": "Borgund kyrkje, Lærdal",
      "images": []
    },
    {
      "lat": "59.3220",
      "lng": "10.8098",
      "name": "Tomb kirke",
      "images": []
    },
    {
      "lat": "65.1843",
      "lng": "12.1233",
      "name": "Solstad kirke",
      "images": []
    },
    {
      "lat": "59.2514",
      "lng": "10.4167",
      "name": "Teie kirke",
      "images": []
    },
    {
      "lat": "59.7873",
      "lng": "5.6944",
      "name": "Eid kyrkje, Kvinnherad",
      "images": []
    },
    {
      "lat": "60.6642",
      "lng": "5.7497",
      "name": "Stamnes kyrkje",
      "images": []
    },
    {
      "lat": "59.1030",
      "lng": "9.5627",
      "name": "Herre kirke",
      "images": []
    },
    {
      "lat": "61.5927",
      "lng": "10.0526",
      "name": "Venabygd kyrkje",
      "images": []
    },
    {
      "lat": "78.2152",
      "lng": "15.6538",
      "name": "Svalbard kirke",
      "images": []
    },
    {
      "lat": "59.4223",
      "lng": "10.1328",
      "name": "Vivestad kirke",
      "images": []
    },
    {
      "lat": "58.2004",
      "lng": "8.0318",
      "name": "Justvik kirke",
      "images": []
    },
    {
      "lat": "59.0077",
      "lng": "8.5590",
      "name": "Treungen kyrkje",
      "images": []
    },
    {
      "lat": "59.2289",
      "lng": "11.1903",
      "name": "Skjeberg kirke",
      "images": []
    },
    {
      "lat": "60.6784",
      "lng": "12.0246",
      "name": "Gjesåsen kirke",
      "images": []
    },
    {
      "lat": "59.9215",
      "lng": "10.7843",
      "name": "Hasle kirke",
      "images": []
    },
    {
      "lat": "60.4210",
      "lng": "5.5260",
      "name": "Takvam kapell",
      "images": []
    },
    {
      "lat": "65.9088",
      "lng": "13.8086",
      "name": "Bleikvassli kapell",
      "images": []
    },
    {
      "lat": "59.0568",
      "lng": "10.1254",
      "name": "Tjølling kirke",
      "images": []
    },
    {
      "lat": "59.9443",
      "lng": "10.9093",
      "name": "Høybråten kirke, Oslo",
      "images": []
    },
    {
      "lat": "59.5888",
      "lng": "10.2083",
      "name": "Sande kirke, Vestfold",
      "images": []
    },
    {
      "lat": "62.4715",
      "lng": "6.1886",
      "name": "Volsdalen kirke",
      "images": []
    },
    {
      "lat": "60.9834",
      "lng": "9.2590",
      "name": "Tingnes kirke",
      "images": []
    },
    {
      "lat": "62.1888",
      "lng": "8.5517",
      "name": "Lesjaverk kirke",
      "images": []
    },
    {
      "lat": "65.8634",
      "lng": "12.1737",
      "name": "Skålvær kirke",
      "images": []
    },
    {
      "lat": "58.7876",
      "lng": "5.7204",
      "name": "Frøyland og Orstad kyrkje",
      "images": []
    },
    {
      "lat": "63.3282",
      "lng": "10.3065",
      "name": "Leinstrand kirke",
      "images": []
    },
    {
      "lat": "65.7089",
      "lng": "12.4551",
      "name": "Vevelstad kirke",
      "images": []
    },
    {
      "lat": "59.4932",
      "lng": "5.7279",
      "name": "Vats kyrkje",
      "images": []
    },
    {
      "lat": "58.0904",
      "lng": "7.8420",
      "name": "Søgne gamle kirke",
      "images": []
    },
    {
      "lat": "60.7434",
      "lng": "10.7699",
      "name": "Nordlien kirke",
      "images": []
    },
    {
      "lat": "60.8878",
      "lng": "9.6391",
      "name": "Bruflat kyrkje",
      "images": []
    },
    {
      "lat": "59.9125",
      "lng": "10.7469",
      "name": "Oslo domkirke",
      "images": []
    },
    {
      "lat": "60.2036",
      "lng": "5.6243",
      "name": "Fusa kyrkje",
      "images": []
    },
    {
      "lat": "62.1373",
      "lng": "10.7955",
      "name": "Tylldal kirke",
      "images": []
    },
    {
      "lat": "60.0087",
      "lng": "5.4983",
      "name": "Uggdal kyrkje",
      "images": []
    },
    {
      "lat": "58.5231",
      "lng": "8.3502",
      "name": "Herefoss kyrkje",
      "images": []
    },
    {
      "lat": "63.9989",
      "lng": "9.1725",
      "name": "Froan kapell",
      "images": []
    },
    {
      "lat": "60.3674",
      "lng": "5.1268",
      "name": "Foldnes kyrkje",
      "images": []
    },
    {
      "lat": "61.4187",
      "lng": "6.1543",
      "name": "Holsen kyrkje",
      "images": []
    },
    {
      "lat": "59.4024",
      "lng": "9.9612",
      "name": "Svarstad kirke",
      "images": []
    },
    {
      "lat": "59.9031",
      "lng": "10.7686",
      "name": "Gamlebyen kirke",
      "images": []
    },
    {
      "lat": "61.3869",
      "lng": "7.3676",
      "name": "Nes kyrkje, Luster",
      "images": []
    },
    {
      "lat": "63.3086",
      "lng": "9.8479",
      "name": "Orkanger kirke",
      "images": []
    },
    {
      "lat": "59.2140",
      "lng": "9.5252",
      "name": "Skotfoss kirke",
      "images": []
    },
    {
      "lat": "60.1016",
      "lng": "12.3250",
      "name": "Austmarka kirke",
      "images": []
    },
    {
      "lat": "61.3191",
      "lng": "9.8557",
      "name": "Svatsum kirke",
      "images": []
    },
    {
      "lat": "59.8829",
      "lng": "8.6749",
      "name": "Dal kirke, Rjukan",
      "images": []
    },
    {
      "lat": "67.7383",
      "lng": "14.8064",
      "name": "Leiranger kirke",
      "images": []
    },
    {
      "lat": "58.9594",
      "lng": "5.7511",
      "name": "Varden kirke",
      "images": []
    },
    {
      "lat": "63.6489",
      "lng": "9.1368",
      "name": "Nordbotn kapell",
      "images": []
    },
    {
      "lat": "62.6745",
      "lng": "7.4277",
      "name": "Veøy gamle kyrkje",
      "images": []
    },
    {
      "lat": "59.6037",
      "lng": "5.8020",
      "name": "Ølen kyrkje",
      "images": []
    },
    {
      "lat": "68.8651",
      "lng": "18.3463",
      "name": "Bardu kirke",
      "images": []
    },
    {
      "lat": "62.3622",
      "lng": "11.1991",
      "name": "Hodalen kirke",
      "images": []
    },
    {
      "lat": "58.5207",
      "lng": "6.1159",
      "name": "Helleland kirke, Eigersund",
      "images": []
    },
    {
      "lat": "59.1429",
      "lng": "9.6417",
      "name": "Vestre Porsgrunn kirke (Vestsidens kirke)",
      "images": []
    },
    {
      "lat": "59.1198",
      "lng": "10.2400",
      "name": "Vesterøy kirke",
      "images": []
    },
    {
      "lat": "59.9489",
      "lng": "10.7542",
      "name": "Bakkehaugen kirke",
      "images": []
    },
    {
      "lat": "63.2645",
      "lng": "9.8141",
      "name": "Orkdal kirke",
      "images": []
    },
    {
      "lat": "60.9756",
      "lng": "9.1822",
      "name": "Strand kyrkje, Svenes i Nord-Aurdal",
      "images": []
    },
    {
      "lat": "63.8471",
      "lng": "8.4560",
      "name": "Sula kapell",
      "images": []
    },
    {
      "lat": "60.8028",
      "lng": "10.6713",
      "name": "Gjøvik kirke",
      "images": []
    },
    {
      "lat": "66.4913",
      "lng": "13.2928",
      "name": "Sørfjorden kirke, Rødøy",
      "images": []
    },
    {
      "lat": "60.1800",
      "lng": "10.2582",
      "name": "Ullerål kirke",
      "images": []
    },
    {
      "lat": "68.7721",
      "lng": "17.8016",
      "name": "Lavangen kirke",
      "images": []
    },
    {
      "lat": "68.3441",
      "lng": "15.5036",
      "name": "Vestbygd kirke, Lødingen",
      "images": []
    },
    {
      "lat": "63.4270",
      "lng": "10.3967",
      "name": "Nidaros domkirke",
      "images": []
    },
    {
      "lat": "59.9995",
      "lng": "10.7710",
      "name": "Maridalen kirke",
      "images": []
    },
    {
      "lat": "61.2737",
      "lng": "10.0047",
      "name": "Aulstad kirke",
      "images": []
    },
    {
      "lat": "59.5433",
      "lng": "5.3514",
      "name": "Sveio kyrkje",
      "images": []
    },
    {
      "lat": "60.5716",
      "lng": "5.9506",
      "name": "Bergsdalen kyrkje",
      "images": []
    },
    {
      "lat": "61.1717",
      "lng": "4.8947",
      "name": "Hersvik kyrkje",
      "images": []
    },
    {
      "lat": "59.5613",
      "lng": "9.2649",
      "name": "Notodden kirke",
      "images": []
    },
    {
      "lat": "63.9467",
      "lng": "11.3275",
      "name": "Heggstad kyrkje, Sandvollan",
      "images": []
    },
    {
      "lat": "61.3622",
      "lng": "7.2612",
      "name": "Fet kyrkje, Luster",
      "images": []
    },
    {
      "lat": "59.4035",
      "lng": "8.4846",
      "name": "Kviteseid kyrkje",
      "images": []
    },
    {
      "lat": "61.8636",
      "lng": "6.3209",
      "name": "Randabygd kyrkje",
      "images": []
    },
    {
      "lat": "58.4498",
      "lng": "8.8641",
      "name": "Tromøy kirke",
      "images": []
    },
    {
      "lat": "59.7003",
      "lng": "5.1990",
      "name": "Lykling kyrkje",
      "images": []
    },
    {
      "lat": "69.9341",
      "lng": "23.0263",
      "name": "Kåfjord kirke, Alta",
      "images": []
    },
    {
      "lat": "63.0315",
      "lng": "10.2916",
      "name": "Støren kirke",
      "images": []
    },
    {
      "lat": "62.3673",
      "lng": "6.0299",
      "name": "Hareid kyrkje",
      "images": []
    },
    {
      "lat": "60.4847",
      "lng": "11.1495",
      "name": "Feiring kirke",
      "images": []
    },
    {
      "lat": "58.8556",
      "lng": "5.6088",
      "name": "Ræge kirke",
      "images": []
    },
    {
      "lat": "61.2981",
      "lng": "7.3225",
      "name": "Urnes stavkyrkje",
      "images": []
    },
    {
      "lat": "60.8618",
      "lng": "8.5637",
      "name": "Hemsedal kyrkje",
      "images": []
    },
    {
      "lat": "60.6839",
      "lng": "10.8457",
      "name": "Hoff kirke, Østre Toten",
      "images": []
    },
    {
      "lat": "60.6999",
      "lng": "9.0104",
      "name": "Herad kyrkje, Gol",
      "images": []
    },
    {
      "lat": "60.0972",
      "lng": "5.9757",
      "name": "Varaldsøy kyrkje",
      "images": []
    },
    {
      "lat": "59.4772",
      "lng": "5.9887",
      "name": "Imsland kyrkje",
      "images": []
    },
    {
      "lat": "60.6972",
      "lng": "8.5017",
      "name": "Leveld kyrkje",
      "images": []
    },
    {
      "lat": "59.6310",
      "lng": "11.1216",
      "name": "Hovin kirke, Spydeberg",
      "images": []
    },
    {
      "lat": "68.2521",
      "lng": "16.0542",
      "name": "Korsnes kirke, Tysfjord",
      "images": []
    },
    {
      "lat": "68.7002",
      "lng": "15.4123",
      "name": "Sortland kirke",
      "images": []
    },
    {
      "lat": "63.6629",
      "lng": "9.3976",
      "name": "Storfosna kirke",
      "images": []
    },
    {
      "lat": "60.3686",
      "lng": "6.1438",
      "name": "Norheimsund kyrkje",
      "images": []
    },
    {
      "lat": "60.3516",
      "lng": "5.3448",
      "name": "Storetveit kirke",
      "images": []
    },
    {
      "lat": "60.2134",
      "lng": "11.0032",
      "name": "Nannestad kirke",
      "images": []
    },
    {
      "lat": "62.2051",
      "lng": "11.4405",
      "name": "Holøydalen kirke",
      "images": []
    },
    {
      "lat": "60.6696",
      "lng": "10.6994",
      "name": "Ås kirke, VestreToten",
      "images": []
    },
    {
      "lat": "59.8261",
      "lng": "10.4136",
      "name": "Vardåsen kirke",
      "images": []
    },
    {
      "lat": "61.0253",
      "lng": "9.5006",
      "name": "Nord-Etnedal kyrkje",
      "images": []
    },
    {
      "lat": "61.0775",
      "lng": "6.5690",
      "name": "Hopperstad stavkyrkje",
      "images": []
    },
    {
      "lat": "59.8670",
      "lng": "5.7580",
      "name": "Husnes kyrkje",
      "images": []
    },
    {
      "lat": "63.0515",
      "lng": "9.2097",
      "name": "Rindal kirke",
      "images": []
    },
    {
      "lat": "69.2722",
      "lng": "19.9472",
      "name": "Storfjord kirke",
      "images": []
    },
    {
      "lat": "58.1481",
      "lng": "7.9221",
      "name": "Hellemyr kirke",
      "images": []
    },
    {
      "lat": "59.8306",
      "lng": "10.8491",
      "name": "Klemetsrud kirke",
      "images": []
    },
    {
      "lat": "59.1763",
      "lng": "5.8139",
      "name": "Hesby kyrkje",
      "images": []
    },
    {
      "lat": "61.3035",
      "lng": "11.4602",
      "name": "Deset kirke",
      "images": []
    },
    {
      "lat": "59.9212",
      "lng": "10.7198",
      "name": "Uranienborg kirke",
      "images": []
    },
    {
      "lat": "60.0702",
      "lng": "6.5478",
      "name": "Odda kirke",
      "images": []
    },
    {
      "lat": "60.5674",
      "lng": "6.9175",
      "name": "Ulvik kyrkje",
      "images": []
    },
    {
      "lat": "59.4352",
      "lng": "10.6621",
      "name": "Moss kirke",
      "images": []
    },
    {
      "lat": "59.9175",
      "lng": "10.7277",
      "name": "Slottskapellet, Oslo",
      "images": []
    },
    {
      "lat": "59.9370",
      "lng": "10.9165",
      "name": "Ellingsrud kirke",
      "images": []
    },
    {
      "lat": "62.6726",
      "lng": "8.5700",
      "name": "Hov kirke, Sunndal",
      "images": []
    },
    {
      "lat": "60.2652",
      "lng": "8.8348",
      "name": "Uvdal stavkirke",
      "images": []
    },
    {
      "lat": "63.4188",
      "lng": "10.3558",
      "name": "Haltdalen stavkirke",
      "images": []
    },
    {
      "lat": "63.3126",
      "lng": "11.8509",
      "name": "Stordalen kapell, Meråker",
      "images": []
    },
    {
      "lat": "59.1211",
      "lng": "11.3909",
      "name": "Immanuels kirke, Halden",
      "images": []
    },
    {
      "lat": "60.7738",
      "lng": "10.6694",
      "name": "Engehaugen kirke",
      "images": []
    },
    {
      "lat": "59.7230",
      "lng": "7.6968",
      "name": "Grunge kyrkje",
      "images": []
    },
    {
      "lat": "62.3117",
      "lng": "7.0663",
      "name": "Liabygda kyrkje",
      "images": []
    },
    {
      "lat": "63.7969",
      "lng": "11.5601",
      "name": "Stiklestad kirke",
      "images": []
    },
    {
      "lat": "68.8718",
      "lng": "17.8569",
      "name": "Salangen kirke",
      "images": []
    },
    {
      "lat": "66.3099",
      "lng": "14.1443",
      "name": "Mo kirke, Rana",
      "images": []
    },
    {
      "lat": "62.6996",
      "lng": "6.7057",
      "name": "Otrøy kyrkje",
      "images": []
    },
    {
      "lat": "61.0752",
      "lng": "5.8290",
      "name": "Bjordal kyrkje",
      "images": []
    },
    {
      "lat": "60.6415",
      "lng": "5.0426",
      "name": "Manger kyrkje",
      "images": []
    },
    {
      "lat": "60.2343",
      "lng": "11.0125",
      "name": "Bjørke kirke, Nannestad",
      "images": []
    },
    {
      "lat": "61.8474",
      "lng": "8.8046",
      "name": "Garmo kyrkje",
      "images": []
    },
    {
      "lat": "58.9687",
      "lng": "5.7491",
      "name": "St. Johannes kirke, Stavanger",
      "images": []
    },
    {
      "lat": "59.3255",
      "lng": "10.9638",
      "name": "Solli kirke",
      "images": []
    },
    {
      "lat": "59.8267",
      "lng": "11.7223",
      "name": "Setskog kirke",
      "images": []
    },
    {
      "lat": "60.7369",
      "lng": "5.1592",
      "name": "Lindås kyrkje",
      "images": []
    },
    {
      "lat": "59.1971",
      "lng": "9.9676",
      "name": "Kvelde kirke",
      "images": []
    },
    {
      "lat": "60.8410",
      "lng": "11.0217",
      "name": "Furnes kirke",
      "images": []
    },
    {
      "lat": "59.8795",
      "lng": "8.6073",
      "name": "Rjukan kirke",
      "images": []
    },
    {
      "lat": "61.0904",
      "lng": "8.9800",
      "name": "Slidre kyrkje",
      "images": []
    },
    {
      "lat": "59.1366",
      "lng": "10.1847",
      "name": "Bugården kirke",
      "images": []
    },
    {
      "lat": "59.8433",
      "lng": "10.4366",
      "name": "Asker kirke",
      "images": []
    },
    {
      "lat": "60.3856",
      "lng": "5.3006",
      "name": "Laksevåg kirke",
      "images": []
    },
    {
      "lat": "59.2366",
      "lng": "10.2811",
      "name": "Skjee kirke",
      "images": []
    },
    {
      "lat": "66.3020",
      "lng": "13.4788",
      "name": "Sjona kirke",
      "images": []
    },
    {
      "lat": "60.0156",
      "lng": "10.6166",
      "name": "Sørkedalen kirke",
      "images": []
    },
    {
      "lat": "63.2510",
      "lng": "10.0515",
      "name": "Skaun kirke",
      "images": []
    },
    {
      "lat": "59.2901",
      "lng": "10.2509",
      "name": "Arnadal kirke",
      "images": []
    },
    {
      "lat": "59.4850",
      "lng": "10.0914",
      "name": "Vassås kirke, Vestfold",
      "images": []
    },
    {
      "lat": "59.5060",
      "lng": "11.3587",
      "name": "Trømborg kirke",
      "images": []
    },
    {
      "lat": "58.9998",
      "lng": "5.6193",
      "name": "Randaberg kirke",
      "images": []
    },
    {
      "lat": "58.7675",
      "lng": "8.4877",
      "name": "Åmli kirke",
      "images": []
    },
    {
      "lat": "60.7928",
      "lng": "6.5754",
      "name": "Oppheim kyrkje",
      "images": []
    },
    {
      "lat": "63.7957",
      "lng": "8.8078",
      "name": "Sletta kirke, Frøya",
      "images": []
    },